S.NO,PRICE,ADDRESS,AREA,LATITUDE,LONGITUDE,BEDROOMS,BATHROOMS,BALCONY,STATUS,NEWOROLD,PARKING,FURNISHED_STATUS,LIFT,LANDMARKS,TYPE_OF_BUILDING,PRICE_SQFT,AREA_TYPE,Zone_Raw
0,5600000,"Noida Extension, Noida, Delhi NCR",1350,28.60885,77.46056,3,3,2,Under Construction,New Property,1,Semi-Furnished,2,Not Mentioned,Flat,4148.148148,Large,Noida
1,8800000,"Sector 79, Gurgaon, Delhi NCR",1490,28.37423557,76.95241631,3,3,2,Ready to Move,New Property,1,Semi-Furnished,2,Not Mentioned,Flat,5906.040268,Large,Gurgaon
2,16500000,"Vaishali, Ghaziabad, Delhi NCR",2385,28.645769,77.38511,4,5,2,Ready to Move,New Property,1,Unfurnished,2,Not Mentioned,Flat,6918.238994,Very Large,Ghaziabad
3,3810000,"Link Road, F Block, Sector 50, Noida, Uttar Pradesh, Sector 1, Greater Noida, Delhi NCR",1050,28.566914,77.436434,2,2,3,Ready to Move,New Property,1,Unfurnished,2,near Gaur Mulberry Mansion,Flat,3628.571429,Medium,Greater Noida
4,6200000,"Jaypee Pavilion Court Sector 128, Noida, Sector 128, Noida, Delhi NCR",1350,28.520732,77.356491,2,2,3,Ready to Move,Resale,1,Semi-Furnished,3,Not Mentioned,Flat,4592.592593,Large,Noida
5,3700000,"tower 2, 6th floor, Crossings Republik, Ghaziabad, Delhi NCR",1150,28.62804,77.437809,2,2,3,Ready to Move,New Property,1,Semi-Furnished,2,Not Mentioned,Flat,3217.391304,Medium,Ghaziabad
6,3270000,"Nirala Aspire, GH03, Sector 16C, Hundal, Greater Noida, Uttar Pradesh 201306, Noida Extension Block C, Noida, Delhi NCR",890,28.610645,77.455837,2,2,3,Ready to Move,Resale,1,Semi-Furnished,2,"within 10km   Ryan,Sarvottam School, yathartha hospital ,city mall,",Flat,3674.157303,Small,Noida
7,3990000,"Suncity Avenue 102, Sector 102, Gurgaon Bang on Dwarka Expressway having all Facilities of a gated Society., Sector 102, Gurgaon, Delhi NCR",850,28.471233,76.969597,2,2,1,Ready to Move,Resale,1,Semi-Furnished,2,Suncity Avenue 102,Flat,4694.117647,Small,Gurgaon
8,3500000,"Sector 2, Greater Noida, Sector 2, Greater Noida, Delhi NCR",960,28.5814311,77.4528192,2,2,2,Ready to Move,Resale,1,Semi-Furnished,2,Not Mentioned,Flat,3645.833333,Small,Greater Noida
9,5500000,"Gaur City 5th Avenue, Noida Extension, Noida, Noida Extension, Noida, Delhi NCR",1400,28.614181,77.427713,3,3,4,Ready to Move,Resale,1,Semi-Furnished,2,"Gaur City Mall, Near Gaur Stadium, City Plaza Market, Bank's and ATM's",Flat,3928.571429,Large,Noida
10,7300000,"Sector 24 Rohini, New Delhi - Rohini, Delhi NCR",850,28.72407532,77.09558105,3,2,1,Ready to Move,New Property,2,Semi-Furnished,1,Near by shri jagannath mandir,Flat,8588.235294,Small,New Delhi - Rohini
11,7700000,"Gurgaon - Faridabad Road, Gurgaon, Delhi NCR",1250,28.436305,77.13605,2,2,2,Ready to Move,Resale,1,Semi-Furnished,2,Not Mentioned,Flat,6160,Medium,Gurgaon
12,10500000,"Sector 110A, Gurgaon, Chandan Vihar, Gurgaon, Delhi NCR",1615,28.51313972,77.0259552,3,3,3,Ready to Move,Resale,1,Unfurnished,2,"Dwarka Express way, Ansal Mall, Metro Hospitals, DPSG School etc.",Flat,6501.547988,Large,Gurgaon
13,7200000,"H-024, Gulshan Vivante, Sector-137, Noida, Sector 137, Noida, Delhi NCR",1200,28.50746138,77.40781667,2,2,3,Ready to Move,Resale,1,Semi-Furnished,2,Near Noida 137 Metro Station and Felix Hospital,Flat,6000,Medium,Noida
14,7000000,"G T Road, Ghaziabad, Delhi NCR",1690,28.679009,77.34929514,3,3,2,Ready to Move,Resale,1,Semi-Furnished,2,Not Mentioned,Flat,4142.011834,Very Large,Ghaziabad
15,9500000,"Sector 24 Rohini, New Delhi - Rohini, Delhi NCR",1000,28.72143555,77.10701752,3,2,1,Ready to Move,New Property,2,Semi-Furnished,1,Near by the sovereign school,Individual House,9500,Medium,New Delhi - Rohini
16,15000000,"Sector 24 Rohini, New Delhi - Rohini, Delhi NCR",1450,28.72721291,77.09606171,4,3,1,Ready to Move,New Property,2,Semi-Furnished,1,Near by shri jagannath mandir,Individual House,10344.82759,Large,New Delhi - Rohini
17,4800000,"Noida Extension, Noida, Delhi NCR",1175,28.61607805,77.42810225,2,2,2,Ready to Move,Resale,1,Semi-Furnished,2,Not Mentioned,Flat,4085.106383,Medium,Noida
18,5100000,"NeelPadam Kunj, Vaishali, Sector 1, Ghaziabad, Sector 1 Vaishali, Ghaziabad, Delhi NCR",1087,28.64431,77.33178711,2,2,2,Ready to Move,Resale,1,Semi-Furnished,2,Prime location surrounded by malls and hospitals along NH-58 near Dabar factory. In between Vaishali and Kaushambi metro stations and very close to Anand Vihar Railway Station.,Flat,4691.812328,Medium,Ghaziabad
19,14000000,"Sector 45, Noida, Sector 45, Noida, Delhi NCR",1845,28.54692971,77.35438729,3,3,3,Ready to Move,Resale,2,Semi-Furnished,2,noida expressway,Flat,7588.075881,Very Large,Noida
20,6250000,"Sector 37C, Gurgaon, Delhi NCR",1400,28.449384,76.98441,2,2,2,Ready to Move,New Property,1,Semi-Furnished,2,Not Mentioned,Flat,4464.285714,Large,Gurgaon
21,8700000,"Sushant Lok 2, Gurgaon, Delhi NCR",1600,28.423049,77.08741,3,2,1,Ready to Move,Resale,1,Unfurnished,2,near hongcong bazar,Flat,5437.5,Large,Gurgaon
22,13000000,"Sector 29, Noida, Delhi NCR",1950,28.56973716,77.33241167,3,3,2,Ready to Move,Resale,1,Semi-Furnished,2,Not Mentioned,Individual House,6666.666667,Very Large,Noida
23,15000000,"flat number 703, kalypso tower 4, jaypee wish town noida, sector 128, Sector 128, Noida, Delhi NCR",1800,28.529146,77.355843,2,3,1,Ready to Move,New Property,1,Semi-Furnished,2,Not Mentioned,Flat,8333.333333,Very Large,Noida
24,5500000,"Noida Extension, Noida., Noida Extension, Noida, Delhi NCR",1440,28.58749935,77.44316979,3,2,5,Ready to Move,Resale,1,Semi-Furnished,2,Property closed to hospital and 2km away from gaur chowk,Flat,3819.444444,Large,Noida
25,4200000,"Noida Extension, Noida, Noida Extension, Noida, Delhi NCR",1040,28.616204,77.422256,2,2,3,Ready to Move,Resale,2,Semi-Furnished,3,Nearest Gaur  chowk,Flat,4038.461538,Medium,Noida
26,3900000,"Noida extension., Noida Extension, Greater Noida, Delhi NCR",1025,28.57223,77.474898,2,2,3,Ready to Move,Resale,1,Semi-Furnished,2,10 km only metro noida 52.,Flat,3804.878049,Medium,Greater Noida
27,10000000,"Sector 16 Vasundhara, Ghaziabad, Delhi NCR",1836,28.6571606,77.355748,3,2,2,Ready to Move,Resale,1,Semi-Furnished,2,Not Mentioned,Individual House,5446.623094,Very Large,Ghaziabad
28,7600000,"Vaishali Ghaziabad, Vaishali, Ghaziabad, Delhi NCR",1350,28.645769,77.38511,3,2,4,Ready to Move,Resale,1,Semi-Furnished,3,Mahagun metro Mall,Flat,5629.62963,Large,Ghaziabad
29,3900000,"Sector 81, Gurgaon, Sector 81, Gurgaon, Delhi NCR",800,28.387731,76.96791987,2,2,1,Ready to Move,Resale,1,Semi-Furnished,2,Nh8.,Flat,4875,Small,Gurgaon
30,9000000,"sector 103 gurgaon, Dwarka Expressway, Gurgaon, Delhi NCR",1481,28.49744987,77.02709198,2,2,2,Ready to Move,Resale,2,Unfurnished,2,near gurgaon railway station,Flat,6076.975017,Large,Gurgaon
31,8350000,"lotus boulevard, Sector 100, Noida, Delhi NCR",1398,28.54341218,77.367853,2,2,2,Ready to Move,Resale,1,Semi-Furnished,3,near pathways school,Flat,5972.818312,Large,Noida
32,13500000,"Adhunik CGHS, Opp Tau Devil Lal Bio DiversitPark, Sector 52, Gurugram, Delhi NCR, Sector 52, Gurgaon, Delhi NCR",2150,28.43520877,77.09022523,3,3,4,Ready to Move,Resale,1,Semi-Furnished,2,Not Mentioned,Individual House,6279.069767,Very Large,Gurgaon
33,5310000,"Shakti Khand 2, Ghaziabad, Delhi NCR",1100,28.6467392,77.3709475,3,2,2,Ready to Move,Resale,1,Furnished,2,Not Mentioned,Flat,4827.272727,Medium,Ghaziabad
34,15000000,"Sector 68, Gurgaon, Delhi NCR",1960,28.3907304,77.05782257,3,3,2,Ready to Move,Resale,1,Semi-Furnished,2,Not Mentioned,Flat,7653.061224,Very Large,Gurgaon
35,17500000,"Sector 104, Gurgaon, Sector 104, Gurgaon, Delhi NCR",2450,28.482277,76.99199526,3,3,3,Ready to Move,New Property,2,Semi-Furnished,2,Bang on Dwarka Expressway,Flat,7142.857143,Very Large,Gurgaon
36,5000000,"Aspire1106, Sector 78, Noida, Delhi NCR",1000,28.5604873,77.384084,2,2,3,Ready to Move,Resale,1,Semi-Furnished,2,Not Mentioned,Flat,5000,Medium,Noida
37,3500000,"Gali No 9, Garhi Jharia Maria, New Delhi - South, Delhi NCR",850,28.55985069,77.24765015,2,2,1,Ready to Move,Resale,1,Furnished,2,Not Mentioned,Flat,4117.647059,Small,New Delhi - South
38,4550000,"Krishna Park Colony, New Delhi - South, Delhi NCR",950,28.50809,77.2314673,3,2,1,Ready to Move,New Property,1,Semi-Furnished,1,The proprty is located nearby vishal mega mart,Flat,4789.473684,Small,New Delhi - South
39,4000000,"Amritpuri B East of Kailash, Amritpuri, New Delhi - South, Delhi NCR",700,28.558586,77.2511855,2,2,2,Ready to Move,Resale,1,Unfurnished,2,Not Mentioned,Flat,5714.285714,Small,New Delhi - South
40,3500000,"Shalimar Garden Exten 1 near Gulmohar park, Shalimar garden, Ghaziabad, Delhi NCR",750,28.68956947,77.33861542,2,2,2,Ready to Move,Resale,1,Semi-Furnished,0,Gulmohar Park,Flat,4666.666667,Small,Ghaziabad
41,3500000,"205. Hardik tower sector 53 Noida, Sector 53, Noida, Delhi NCR",950,28.5905383,77.35981,2,2,1,Ready to Move,Resale,1,Semi-Furnished,1,Near by kanchanjungha sector 61 Noida,Individual House,3684.210526,Small,Noida
42,2400000,"Gali No-15 Sadnagar Palam New Delhi-110045, Palam Colony, New Delhi - Dwarka, Delhi NCR",540,28.5922718,77.0836792,2,2,1,Ready to Move,New Property,1,Semi-Furnished,0,Palam metro station half an hour distance,Flat,4444.444444,Small,New Delhi - Dwarka
43,80000000,"Central park the resorts sector 48 gurgaon, Sector 48, Gurgaon, Delhi NCR",5571,28.424904,77.03476,5,5,3,Ready to Move,Resale,4,Semi-Furnished,2,Near By Raheja Mall,Individual House,14360.07898,Very Large,Gurgaon
44,9500000,"Patel Nagar West, New Delhi - West, Delhi NCR",1200,28.652429,77.1643181,2,2,2,Ready to Move,Resale,1,Semi-Furnished,2,Not Mentioned,Flat,7916.666667,Medium,New Delhi - West
45,10500000,"Sector 65, Gurgaon, Delhi NCR",1020,28.3978564,77.07393158,2,2,2,Ready to Move,Resale,1,Semi-Furnished,2,Not Mentioned,Flat,10294.11765,Medium,Gurgaon
46,7500000,"G 033., Sector 108, Gurgaon, Delhi NCR",1505,28.512136,76.986899,2,2,2,Ready to Move,Resale,1,Semi-Furnished,2,Near Dwarka expressway. Near Shobha and Experion projects,Flat,4983.388704,Large,Gurgaon
47,4800000,"Ghaziabad, Vivekanand Nagar, Ghaziabad, Delhi NCR",1232,28.65280724,77.4509201,6,3,2,Ready to Move,Resale,1,Unfurnished,2,Not Mentioned,Flat,3896.103896,Medium,Ghaziabad
48,5600000,"Gurgaon - Faridabad Road, Gurgaon, Delhi NCR",929,28.436305,77.13605,2,2,1,Ready to Move,Resale,1,Semi-Furnished,2,Not Mentioned,Flat,6027.987083,Small,Gurgaon
49,8500000,"Vaishali, Ghaziabad, Delhi NCR",1350,28.647938,77.340697,3,3,2,Ready to Move,Resale,1,Semi-Furnished,2,Not Mentioned,Flat,6296.296296,Large,Ghaziabad
50,4700000,"Indirapuram Ghaziabad, Indirapuram, Ghaziabad, Delhi NCR",1085,28.646509,77.38148828,2,2,2,Ready to Move,Resale,1,Semi-Furnished,2,DSP school,Flat,4331.797235,Medium,Ghaziabad
51,8500000,"Sector 108, Gurgaon, Delhi NCR",1790,28.512136,76.986899,3,3,2,Ready to Move,Resale,1,Semi-Furnished,2,Not Mentioned,Flat,4748.603352,Very Large,Gurgaon
52,10000000,"Sector 104, Gurgaon, Sector 104, Gurgaon, Delhi NCR",1689,28.487018,76.998009,3,3,4,Ready to Move,New Property,1,Semi-Furnished,3,Bang on 150 mtr wide Dwarka Expressway . closer to Delhi n Airport,Flat,5920.663114,Very Large,Gurgaon
53,18000000,"Sector 67, Gurgaon, Sector 67, Gurgaon, Delhi NCR",2411,28.391644,77.06486457,3,3,3,Ready to Move,Resale,2,Semi-Furnished,2,sector 67,Flat,7465.781833,Very Large,Gurgaon
54,12400000,"2nd floor metro view apartment sector 13 B dwarka, Sector 13 Dwarka, New Delhi - Dwarka, Delhi NCR",1650,28.6016823,77.03193279,3,2,2,Ready to Move,Resale,2,Semi-Furnished,0,near by vegas mall sector 14,Flat,7515.151515,Large,New Delhi - Dwarka
55,7700000,"Sector 137, Noida, Sector 137, Noida, Delhi NCR",1685,28.50920801,77.40662554,3,4,4,Ready to Move,Resale,1,Unfurnished,2,Sector 137 Metro Station,Flat,4569.732938,Very Large,Noida
56,6000000,"Vaishali, Ghaziabad, Delhi NCR",1050,28.648794,77.34253225,2,2,2,Ready to Move,Resale,1,Semi-Furnished,2,Not Mentioned,Flat,5714.285714,Medium,Ghaziabad
57,12500000,"sector 6 dwarka, Sector 6 Dwarka, New Delhi - Dwarka, Delhi NCR",1300,28.59344,77.065951,2,2,2,Ready to Move,Resale,2,Semi-Furnished,2,near by sector 9 Metro Station,Flat,9615.384615,Large,New Delhi - Dwarka
58,6380000,"Chhatarpur New Delhi, Chhattarpur, New Delhi - South, Delhi NCR",1170,28.49589348,77.18599701,3,2,1,Ready to Move,New Property,1,Semi-Furnished,1,Nearby SKY MANSION BUILDING CSKM PUBLIC SCHOOL Chhatarpur Metro statio,Flat,5452.991453,Medium,New Delhi - South
59,7400000,"Sohna Road, Gurgaon, Sector 33, Gurgaon, Delhi NCR",1275,28.28709602,77.06906128,2,2,2,Ready to Move,New Property,1,Semi-Furnished,2,On main sohna roadjust before central park flower valleyg. D. Goenka,Flat,5803.921569,Large,Gurgaon
60,8400000,"Sector 84, Gurugram, Haryana, Sihi, Gurgaon, Delhi NCR",1890,28.410466,76.962531,3,3,4,Ready to Move,Resale,1,Semi-Furnished,2,"Schools,Hospials,Multiplex,Malls & Banks,5/4 Star Hotels in Vacinity",Flat,4444.444444,Very Large,Gurgaon
61,6400000,"Sector 76, Noida, Sector 76, Noida, Delhi NCR",1455,28.570142,77.386273,3,2,3,Ready to Move,Resale,1,Semi-Furnished,2,"Near Prateek Wisteria Sector-77 Noida,      4 km Noida City Centre Metro Station",Individual House,4398.62543,Large,Noida
62,19000000,"Dwarka, New Delhi - Dwarka, Delhi NCR",1768,28.59343183,77.04427276,3,2,2,Ready to Move,Resale,2,Semi-Furnished,2,Opposite Bensups hospital; 500 meters walk from Metro station.,Flat,10746.60633,Very Large,New Delhi - Dwarka
63,4300000,"sector 1 greater noida west, Greater Noida West, Greater Noida, Delhi NCR",1295,28.566914,77.436434,2,2,4,Ready to Move,Resale,2,Semi-Furnished,2,"Near ATS Chowk, near Ace city ' sector 1 greater noida west",Individual House,3320.46332,Large,Greater Noida
64,23800000,"Ibiza Town, Suraj Kund Road, Faridabad, Suraj Kund, Faridabad, Delhi NCR",3500,28.4818021,77.2200217,4,5,3,Ready to Move,Resale,1,Semi-Furnished,2,Near Surajkund international Carft,Flat,6800,Very Large,Faridabad
65,10500000,"Plot No:1, Sadarpur, Sector-45, Noida, Uttar Pradesh 201303, Sector 45, Noida, Delhi NCR",1850,28.548787,77.346032,3,4,2,Ready to Move,Resale,2,Semi-Furnished,3,Near by NRI Residency sector 45 Noida,Flat,5675.675676,Very Large,Noida
66,10800000,"Sector 32 Sohna Gurgaon Haryana, Sohna, Gurgaon, Delhi NCR",1966,28.247592,77.069185,2,2,1,Ready to Move,Resale,1,Semi-Furnished,2,Near By G D Goenka University,Flat,5493.387589,Very Large,Gurgaon
67,5500000,"Indirapuram, Ghaziabad, Delhi NCR",1350,28.6493479,77.3696259,2,2,2,Ready to Move,Resale,1,Furnished,2,Not Mentioned,Flat,4074.074074,Large,Ghaziabad
68,4320000,"Sector 137, Noida, Sector 137, Noida, Delhi NCR",1040,28.509118,77.413416,2,2,3,Ready to Move,New Property,1,Semi-Furnished,2,"located on noida expresswaynear by sector 137 metro station, noida",Flat,4153.846154,Medium,Noida
69,3000000,"Sai Enclave niti khand indirapuram, Niti Khand-Indirapuram, Ghaziabad, Delhi NCR",800,28.6452824,77.3621025,2,2,1,Ready to Move,Resale,1,Semi-Furnished,0,Near Hathi Park,Flat,3750,Small,Ghaziabad
70,3500000,"Greater Noida, Greater Noida West, Greater Noida, Delhi NCR",950,28.579593,77.445197,2,2,3,Ready to Move,Resale,1,Semi-Furnished,3,Ace City,Flat,3684.210526,Small,Greater Noida
71,16000000,"F-54., South City 2, Gurgaon, Delhi NCR",2000,28.4178669,77.0512457,4,4,3,Ready to Move,Resale,2,Semi-Furnished,2,Right next to South Patio club,Flat,8000,Very Large,Gurgaon
72,3000000,"NH 24 Ghaziabad, NH 24, Ghaziabad, Delhi NCR",900,28.685449,77.5092258,2,2,3,Ready to Move,Resale,1,Semi-Furnished,2,Columbia Hospital,Individual House,3333.333333,Small,Ghaziabad
73,3300000,"Park Lotus Surajpur Greater Noida, Surajpur, Greater Noida, Delhi NCR",960,28.51284137,77.48955332,2,2,1,Ready to Move,Resale,1,Semi-Furnished,1,Near by Surajpur Police chowki Greater Noida,Flat,3437.5,Small,Greater Noida
74,8200000,"Gurgaon - Faridabad Road, Gurgaon, Gwal Pahari, Gurgaon - South, Delhi NCR",1371,28.433653,77.152919,2,2,3,Ready to Move,New Property,2,Semi-Furnished,2,"very close golf course road sec- 56, and south delhi, faridabad",Flat,5981.03574,Large,Gurgaon - South
75,6000000,"Unitech Horizon Greater Noida, PI 2, Greater Noida, Delhi NCR",1750,28.475274,77.545978,3,3,1,Ready to Move,Resale,2,Semi-Furnished,2,Near by GAIL society pI1 Greater Noida,Flat,3428.571429,Very Large,Greater Noida
76,4100000,"NH 24 Ghaziabad, NH 24, Ghaziabad, Delhi NCR",1299,28.519997,77.376873,3,2,4,Ready to Move,Resale,1,Semi-Furnished,2,Columbia Asia Hospital.,Flat,3156.274057,Large,Ghaziabad
77,5200000,"plot no -02 E sector 12  Graeter noida west, Greater Noida West, Noida, Delhi NCR",1365,28.60595894,77.44451141,3,2,3,Ready to Move,Resale,2,Furnished,2,Rajiv Palaya chowk.,Flat,3809.52381,Large,Noida
78,21000000,"godrej golf links, the crest, Pari Chowk, Greater Noida, Delhi NCR",2800,28.4655907,77.5114027,4,5,4,Ready to Move,Resale,1,Unfurnished,2,"It is close to metro stn. Alpha 1 and market, banks",Flat,7500,Very Large,Greater Noida
79,2650000,"Sector 4, Greater Noida, Greater Noida West, Greater Noida, Delhi NCR",835,28.609898,77.436343,2,2,2,Ready to Move,Resale,1,Unfurnished,2,1.7 KM from Gaur Chowk and 0.7 KM from purported Metro Station,Flat,3173.652695,Small,Greater Noida
80,10000000,"Paschim Vihar, New Delhi - West, Delhi NCR",1000,28.6677244,77.0979515,2,2,2,Ready to Move,Resale,1,Unfurnished,2,Not Mentioned,Individual House,10000,Medium,New Delhi - West
81,4500000,"A33 Shishram park Uttam Nagar, Uttam Nagar East, New Delhi - West, Delhi NCR",1000,28.63472366,77.04911041,3,2,1,Ready to Move,Resale,1,Semi-Furnished,2,New Holy Public School,Flat,4500,Medium,New Delhi - West
82,6900000,"B1 1103 The Romano sector 118 Noida, Sector 118, Noida, Delhi NCR",1260,28.58548927,77.39931488,2,2,3,Ready to Move,Resale,1,Unfurnished,2,Near by Amrapali zodiac sector 120 Noida,Flat,5476.190476,Large,Noida
83,13500000,"Sector 99, Gurgaon, Delhi NCR",2425,28.44456311,76.9550119,4,4,2,Ready to Move,Resale,1,Semi-Furnished,2,Not Mentioned,Flat,5567.010309,Very Large,Gurgaon
84,4500000,"Pratap vihar Ghaziabad, Pratap Vihar, Ghaziabad, Delhi NCR",1198,28.63336372,77.43121338,3,2,1,Ready to Move,Resale,1,Furnished,2,Dominos Pizza,Flat,3756.260434,Medium,Ghaziabad
85,32500000,"Sultanpur, New Delhi, Sultanpur, New Delhi - South, Delhi NCR",3000,28.4969141,77.1652546,3,3,2,Ready to Move,Resale,2,Semi-Furnished,1,Near Sultanpur Metro Station,Flat,10833.33333,Very Large,New Delhi - South
86,11000000,"Sector 71, Gurgaon, Delhi NCR",1743,28.419032,77.028272,3,3,2,Ready to Move,New Property,1,Semi-Furnished,2,Not Mentioned,Individual House,6310.958118,Very Large,Gurgaon
87,3200000,"Gali no 4, behind Aman bakery, Mahavir Enclave Part 1, New Delhi - Dwarka, Delhi NCR",650,28.59803581,77.07652283,2,2,1,Ready to Move,Resale,1,Unfurnished,2,Not Mentioned,Flat,4923.076923,Small,New Delhi - Dwarka
88,3200000,"greater noida, Jalvayu Vihar, Greater Noida, Delhi NCR",815,28.446343,77.515305,2,2,2,Ready to Move,Resale,1,Semi-Furnished,2,Not Mentioned,Flat,3926.380368,Small,Greater Noida
89,3400000,"Bhopura, Ghaziabad, Delhi NCR",1050,28.7005505,77.3286995,2,2,2,Ready to Move,Resale,1,Unfurnished,2,Not Mentioned,Flat,3238.095238,Medium,Ghaziabad
90,11100000,"Ashoka Enclave Part 1, Faridabad, Delhi NCR",2100,28.46847725,77.31389618,4,3,2,Ready to Move,Resale,1,Furnished,2,Not Mentioned,Flat,5285.714286,Very Large,Faridabad
91,3500000,"Sector 5 Rajendra Nagar, Ghaziabad, Delhi NCR",900,28.6809994,77.356998,2,2,1,Ready to Move,Resale,1,Unfurnished,2,Not Mentioned,Flat,3888.888889,Small,Ghaziabad
92,12500000,"Unitech Fresco Nirvana Country Sector 50, Gurgaon, Nirvana Country, Gurgaon, Delhi NCR",1836,28.414627,77.060127,3,3,3,Ready to Move,Resale,2,Semi-Furnished,3,Nirvana countryHibiscusGolf EstateDPS International school,Flat,6808.278867,Very Large,Gurgaon
93,8500000,"Plot No. GH 03/A, Sector 143, Noida, Uttar Pradesh 201306, Sector 143A, Noida, Delhi NCR",1495,28.502597,77.428742,3,2,2,Ready to Move,Resale,1,Semi-Furnished,2,Not Mentioned,Flat,5685.618729,Large,Noida
94,4200000,"Noida Extension, Noida, Noida Extension, Noida, Delhi NCR",1040,28.616204,77.422256,2,2,2,Ready to Move,Resale,1,Semi-Furnished,3,14th avenue gaur city 2 Noida extension sector 16c  Gautam Budh Nagar,Flat,4038.461538,Medium,Noida
95,82000000,"Golf Course Road, Gurgaon, Golf Course Road, Gurgaon, Delhi NCR",5495,28.43618253,77.10430584,5,6,2,Ready to Move,Resale,3,Semi-Furnished,3,the property is close to rapid metro and opposite to centrum plaza,Flat,14922.65696,Very Large,Gurgaon
96,9000000,"panchwati appartments, Vikaspuri, New Delhi - West, Delhi NCR",1250,28.64015875,77.0662659,2,2,2,Ready to Move,Resale,1,Semi-Furnished,2,near Gurudwara h block vikaspuri,Individual House,7200,Medium,New Delhi - West
97,14000000,"B-31/S-1, B- Block, Dilshad Garden, Shahdara, Delhi-110095, Dilshad Garden, New Delhi - East, Delhi NCR",2500,28.68651581,77.29942322,3,2,1,Ready to Move,Resale,2,Semi-Furnished,2,Nearby GTB Hospital. 1.5 km from the Jhilmil Metro Station,Flat,5600,Very Large,New Delhi - East
98,8900000,"Sector 37D, Gurgaon, Delhi NCR",1815,28.45251307,76.97627035,3,3,2,Ready to Move,Resale,1,Semi-Furnished,2,Not Mentioned,Flat,4903.581267,Very Large,Gurgaon
99,3200000,"Raj Nagar Extension, Ghaziabad, Delhi NCR",1041,28.70183798,77.42320672,2,2,3,Ready to Move,Resale,1,Semi-Furnished,2,Not Mentioned,Flat,3073.967339,Medium,Ghaziabad
100,15000000,"S Block, Sector 49, Gurgaon, Delhi NCR",2000,28.412109,77.049522,4,4,3,Ready to Move,Resale,2,Semi-Furnished,0,"Sohna Road, Omaxe Mall",Flat,7500,Very Large,Gurgaon
101,9200000,"Sector-82, Mapsko Casa Bella, Sector 82, Gurgaon, Delhi NCR",1960,28.393665,76.962842,3,3,3,Ready to Move,Resale,123,Semi-Furnished,2,"The property is nearby to NH-8, and running project of metro.",Individual House,4693.877551,Very Large,Gurgaon
102,11500000,"sector 84, Sihi, Gurgaon, Delhi NCR",1963,28.406752,76.96474017,3,3,3,Ready to Move,Resale,2,Semi-Furnished,2,Near to DPS 84 and Matri Kiran School. In close proximity to malls.,Flat,5858.380031,Very Large,Gurgaon
103,6000000,"Sector 119, Noida -201301, Sector 119, Noida, Delhi NCR",1246,28.58632879,77.40106202,2,2,3,Ready to Move,Resale,1,Semi-Furnished,2,Near by Tripathi Hospital sector 119 Noida,Individual House,4815.40931,Medium,Noida
104,3900000,"omicran near Parichowk supertech Czar, Omicron, Greater Noida, Delhi NCR",1085,28.473679,77.506258,2,2,3,Ready to Move,Resale,1,Semi-Furnished,3,Near by Gaur Atulyam omicron Greater Noida,Flat,3594.470046,Medium,Greater Noida
105,3600000,"Ajanra le Garden, sector 16, greater noida, dist. Gautam budh nagar. U.P., Greater Noida West, Greater Noida, Delhi NCR",995,28.606945,77.45557857,2,2,3,Ready to Move,Resale,1,Semi-Furnished,2,"Sector 16, circle 4, gautam budh nagar",Individual House,3618.090452,Medium,Greater Noida
106,49000000,"Sector 27, Greater Noida, Noida, Uttar Pradesh, Sector 27, Greater Noida, Delhi NCR",6168,28.470149,77.535673,5,5,3,Ready to Move,Resale,3,Semi-Furnished,2,"Property is very close to Pari Chowk, Metro Station, Expressway",Flat,7944.228275,Very Large,Greater Noida
107,7500000,"Sector 77, Gurgaon, Delhi NCR",1260,28.3824895,76.9823169,2,2,2,Ready to Move,New Property,1,Semi-Furnished,2,Near Toll Plaza,Individual House,5952.380952,Large,Gurgaon
108,18000000,"Eastend Aptts, Mayur Vihar 1, New Delhi - East, Delhi NCR",1700,28.5884566,77.304787,4,3,1,Ready to Move,Resale,1,Semi-Furnished,2,nearby New Ashok Nagar Metro station,Individual House,10588.23529,Very Large,New Delhi - East
109,17200000,"Sector 10 Dwarka, New Delhi - Dwarka, Delhi NCR",2025,28.58584227,77.06062479,3,2,4,Ready to Move,Resale,2,Semi-Furnished,2,near inderprastha international school,Flat,8493.82716,Very Large,New Delhi - Dwarka
110,17000000,"Moti Nagar, New Delhi - West, Delhi NCR",1600,28.66662979,77.15222168,3,2,2,Ready to Move,Resale,2,Semi-Furnished,3,Near by CTC mall,Flat,10625,Large,New Delhi - West
111,5500000,"sector 12 gurgaon, Sector 12, Gurgaon, Delhi NCR",1150,28.4974556,77.02713776,3,2,1,Ready to Move,Resale,1,Semi-Furnished,1,near BSNL office,Flat,4782.608696,Medium,Gurgaon
112,13000000,"Kumar Excellency plaza, Sector 11 Vasundhara, Ghaziabad, Delhi NCR",2300,28.65584564,77.3682251,4,4,3,Ready to Move,Resale,1,Unfurnished,2,Sunrise Mall,Flat,5652.173913,Very Large,Ghaziabad
113,9900000,"Sector 90, Gurugram, Haryana 122505, Sector 90, Gurgaon, Delhi NCR",1760,28.407361,76.93426176,3,2,4,Ready to Move,Resale,1,Semi-Furnished,3,Near HP petrol pump,Flat,5625,Very Large,Gurgaon
114,7000000,"Sanjiv Malhotra D-2, 208/209, Ground Floor Sector-11, Rohin, New Delhi- 110085, Sector 11 Rohini, New Delhi - Rohini, Delhi NCR",559,28.7295315,77.106949,2,2,2,Ready to Move,Resale,1,Unfurnished,2,Not Mentioned,Individual House,12522.36136,Small,New Delhi - Rohini
115,5150000,"Sector 143, Noida, Sector 143, Noida, Delhi NCR",1234,28.500621,77.424203,2,2,2,Ready to Move,Resale,1,Semi-Furnished,2,Near by Gulshan Ikebana sector 143 Noida,Flat,4173.419773,Medium,Noida
116,7500000,"Paschim Vihar, New Delhi, Paschim Vihar, New Delhi - West, Delhi NCR",700,28.66287399,77.09776702,2,2,2,Ready to Move,Resale,1,Semi-Furnished,2,Opposite shiv Mandir,Flat,10714.28571,Small,New Delhi - West
117,2630000,"415  81High street mall sector 81 not pull greater Faridabad, Sector 81, Faridabad, Delhi NCR",750,28.3924408,77.34424591,3,2,2,Ready to Move,New Property,1,Unfurnished,2,Not Mentioned,Flat,3506.666667,Small,Faridabad
118,4600000,"Uttam Nagar West, New Delhi - West, Delhi NCR",1000,28.618239,77.054361,3,2,2,Under Construction,New Property,1,Semi-Furnished,1,Not Mentioned,Flat,4600,Medium,New Delhi - West
119,7500000,"G Tower, Amrapali Sapphire Phase I, Sector 45, Noida, Delhi NCR",1390,28.548787,77.346032,3,2,3,Ready to Move,Resale,1,Semi-Furnished,2,"Close to Delhi Border & Mahamaya Bridge, Botanical garden Metro",Flat,5395.683453,Large,Noida
120,7000000,"Sector 69, Gurgaon, Sector 69, Gurgaon, Delhi NCR",1326,28.397731,77.036526,3,3,3,Ready to Move,Resale,1,Semi-Furnished,2,"Close to Golf link extn road, Tata Primanti 46 floor",Flat,5279.034691,Large,Gurgaon
121,5800000,"Sector 129, Noida, Delhi NCR",1270,28.524543,77.364765,3,3,2,Ready to Move,Resale,1,Semi-Furnished,2,Not Mentioned,Flat,4566.929134,Large,Noida
122,5200000,"Sector 143, Noida, Delhi NCR",1175,28.500621,77.424203,2,2,2,Ready to Move,Resale,1,Semi-Furnished,2,Not Mentioned,Individual House,4425.531915,Medium,Noida
123,26000000,"Sector 128 Noida, Sector 128, Noida, Delhi NCR",3755,28.52798043,77.354191,4,6,2,Ready to Move,New Property,2,Semi-Furnished,5,Axis Bank,Flat,6924.101198,Very Large,Noida
124,20000000,"DLF Capital Greens Phase 1, Moti Nagar, New Delhi - West, Delhi NCR",1650,28.666059,77.150134,3,3,4,Ready to Move,Resale,1,Semi-Furnished,2,near kirti Nagar and punjabi bagh,Flat,12121.21212,Large,New Delhi - West
125,3200000,"895., Mehrauli, New Delhi - South, Delhi NCR",800,28.5201861,77.179158,2,2,1,Ready to Move,New Property,1,Unfurnished,2,"Near y by chhatarpur metro station ,park,Bank Atm, Gym.",Flat,4000,Small,New Delhi - South
126,8500000,"Near Dashmesh Hospital, Jail Road, Shiv Nagar, New Delhi - West, Delhi NCR",1100,28.6288025,77.0958556,2,2,2,Ready to Move,Resale,1,Furnished,2,Not Mentioned,Flat,7727.272727,Medium,New Delhi - West
127,4320000,"Sector 67, Gurgaon, Delhi NCR",800,28.38762,77.06237,2,2,2,Ready to Move,Resale,1,Semi-Furnished,2,Not Mentioned,Flat,5400,Small,Gurgaon
128,6710000,"Vasundhara, Ghaziabad, Vasundhara, Ghaziabad, Delhi NCR",1180,28.65493,77.350989,2,2,2,Ready to Move,Resale,1,Semi-Furnished,2,Near by  silver spoon banquet hall ghaziabad.,Flat,5686.440678,Medium,Ghaziabad
129,16900000,"firstfloor, Sushant Lok 1 Block C, Gurgaon, Delhi NCR",1935,28.45451736,77.08187103,3,4,2,Ready to Move,Resale,2,Semi-Furnished,1,The property is close to HUDA metro and marriot hotel .walking distance to shopping marts,Flat,8733.850129,Very Large,Gurgaon
130,12500000,"Sec 30, Near N M C hospital, Noida, Ram Vihar, Noida, Delhi NCR",1800,28.576661,77.339673,3,3,2,Ready to Move,Resale,1,Semi-Furnished,2,Not Mentioned,Flat,6944.444444,Very Large,Noida
131,5000000,"Unitech Unihomes, Tower A1, Sector-117, Noida, Sector 117, Noida, Delhi NCR",1200,28.57763481,77.39510345,3,2,3,Ready to Move,Resale,1,Unfurnished,2,Not Mentioned,Flat,4166.666667,Medium,Noida
132,12000000,"Lajpat Nagar, New Delhi, Lajpat Nagar 4, New Delhi - South, Delhi NCR",1250,28.564363,77.24171,2,2,2,Ready to Move,Resale,2,Semi-Furnished,0,mool chand metro station,Flat,9600,Medium,New Delhi - South
133,2700000,"Plot Number 6 Flat number 101  Hans enclave Gurgaon, Hans Enclave, Gurgaon, Delhi NCR",770,28.49746704,77.02709961,2,2,1,Ready to Move,Resale,1,Semi-Furnished,1,near Rajiv Chowk,Flat,3506.493506,Small,Gurgaon
134,11000000,"Vasundhara Enclave, New Delhi - East, Delhi NCR",1200,28.6017251,77.3178069,3,2,2,Ready to Move,Resale,1,Furnished,2,Not Mentioned,Flat,9166.666667,Medium,New Delhi - East
135,14000000,"Row House, Sector 21 Surya Vihar-, Gurgaon, Delhi NCR",2500,28.51766396,77.07933044,5,5,2,Ready to Move,Resale,3,Furnished,2,"The property is 50 Yards from Delhi Gurgaon border.Nearest to IGI airport (8 km),Dwarka (7 Km and Dhaula Kuan (12 km). NH-8 toll point  is  1 km Udyog Vihar Phase 1 is less than a km.Udyog vihar phase 1 ,Gurgaon  is turning into a a very big commercial complex having call centres and MNC offices.Corporate presence is on increase",Flat,5600,Very Large,Gurgaon
136,7500000,"Sector 37D, Gurgaon, Delhi NCR",1675,28.446568,76.968477,3,3,2,Ready to Move,Resale,1,Semi-Furnished,2,Not Mentioned,Flat,4477.61194,Very Large,Gurgaon
137,12000000,"4a/301, Sector 85, Gurgaon, Delhi NCR",2520,28.406684,76.952289,4,3,3,Ready to Move,Resale,1,Semi-Furnished,2,Not Mentioned,Flat,4761.904762,Very Large,Gurgaon
138,4100000,"Noida-Greater Noida Expy, Sector 134, Noida, Uttar Pradesh, Sector 134, Noida, Delhi NCR",1000,28.503955,77.384451,2,2,2,Ready to Move,Resale,2,Semi-Furnished,2,Sector 134,Flat,4100,Medium,Noida
139,3790000,"Wave Floor Sec- 2, Wave City N.H. - 24 Ghaziabad, Wave City, Ghaziabad, Delhi NCR",1310,28.646836,77.508238,2,3,2,Ready to Move,New Property,1,Semi-Furnished,0,Columbia Asia Hospital - Ghaziabad,Flat,2893.129771,Large,Ghaziabad
140,5200000,"Indirapuram, Nyay Khand 1, Ghaziabad, Delhi NCR",1065,28.63350296,77.43159485,2,2,3,Ready to Move,Resale,2,Semi-Furnished,3,Near Sai Baba Mandir,Flat,4882.629108,Medium,Ghaziabad
141,12500000,"Sector 70A, Gurgaon, Delhi NCR",1830,28.385432,77.017122,3,3,3,Ready to Move,Resale,1,Semi-Furnished,2,Not Mentioned,Flat,6830.601093,Very Large,Gurgaon
142,15200000,"Sector 48, Gurgaon, Delhi NCR",2268,28.41492081,77.03590393,3,3,2,Ready to Move,New Property,1,Semi-Furnished,2,Not Mentioned,Flat,6701.940035,Very Large,Gurgaon
143,10500000,"Sector 80, Gurgaon, Sector 80, Gurgaon, Delhi NCR",1821,28.37561513,76.95761609,3,3,3,Ready to Move,Resale,1,Semi-Furnished,2,Not Mentioned,Individual House,5766.062603,Very Large,Gurgaon
144,4000000,"Yamuna Expressway, Greater Noida, Delhi NCR",1115,28.309616,77.55859,2,2,2,Ready to Move,Resale,1,Semi-Furnished,2,Not Mentioned,Flat,3587.443946,Medium,Greater Noida
145,3330000,"Sector 137, Noida, Delhi NCR",825,28.505584,77.410762,2,2,2,Ready to Move,Resale,1,Semi-Furnished,2,Not Mentioned,Individual House,4036.363636,Small,Noida
146,17000000,"Niti Khand  1 Indirapuram Ghaziabad, Niti Khand-Indirapuram, Ghaziabad, Delhi NCR",3500,28.63601494,77.43365479,4,3,2,Ready to Move,Resale,1,Semi-Furnished,1,Cambridge School,Flat,4857.142857,Very Large,Ghaziabad
147,3600000,"Plot No.1, Gadaipur, Mehrauli-Mandi Road, Gadaipur, New Delhi - South, Delhi NCR",750,28.4826489,77.1600563,2,2,2,Ready to Move,Resale,1,Semi-Furnished,1,The property is about 3km from Chattarpur Metro and Sultanpur Metro.,Flat,4800,Small,New Delhi - South
148,4500000,"sector 2, Rajendra Nagar, Ghaziabad, Delhi NCR",1250,28.68176651,77.36365509,3,2,1,Ready to Move,New Property,1,Unfurnished,2,Not Mentioned,Flat,3600,Medium,Ghaziabad
149,5500000,"I block - 21069, Noida Extension, Noida, Delhi NCR",1375,28.616204,77.422256,3,3,3,Ready to Move,Resale,1,Semi-Furnished,2,Not Mentioned,Flat,4000,Large,Noida
150,24500000,"Sector 60, Gurgaon, Delhi NCR",2797,28.400064,77.0959513,4,4,2,Ready to Move,Resale,1,Semi-Furnished,2,Not Mentioned,Individual House,8759.385055,Very Large,Gurgaon
151,45000000,"Sector 42, Gurgaon, Delhi NCR",9000,28.45846939,77.10864258,10,10,10,Ready to Move,Resale,10,Unfurnished,2,"Shiv nadar school , golf course road.",Flat,5000,Very Large,Gurgaon
152,5000000,"NH 24, Ghaziabad, NH 24, Ghaziabad, Delhi NCR",1470,28.663705,77.470854,3,2,3,Ready to Move,Resale,1,Semi-Furnished,2,Not Mentioned,Flat,3401.360544,Large,Ghaziabad
153,12500000,"Sector 17, Faridabad, Delhi NCR",3150,28.40966797,77.33113861,3,3,2,Ready to Move,Resale,1,Semi-Furnished,2,Not Mentioned,Flat,3968.253968,Very Large,Faridabad
154,7400000,"Vasundhara, Ghaziabad, Delhi NCR",1530,28.655782,77.3527833,3,2,3,Ready to Move,Resale,1,Semi-Furnished,2,Near country inn Hotel,Flat,4836.601307,Large,Ghaziabad
155,4100000,"H.No. 18A, Adarsh Nagar, Nandgram, Ghaziabad, Nand Gram, Ghaziabad, Delhi NCR",1200,28.69149399,77.40766907,3,2,2,Ready to Move,Resale,1,Furnished,2,behind A block,Flat,3416.666667,Medium,Ghaziabad
156,16000000,"Dwarka Sector 22, New Delhi, Sector 22 Dwarka, New Delhi - Dwarka, Delhi NCR",1750,28.5593993,77.0596789,3,2,3,Ready to Move,Resale,2,Semi-Furnished,2,Near metro station sector-21,Flat,9142.857143,Very Large,New Delhi - Dwarka
157,3250000,"Raj Nagar Extension Ghaziabad, Raj Nagar Extension, Ghaziabad, Delhi NCR",1050,28.70019204,77.427474,2,2,2,Ready to Move,Resale,1,Semi-Furnished,2,VVIP Adress,Individual House,3095.238095,Medium,Ghaziabad
158,5500000,"2 Floor, Sector 16A, Faridabad, Delhi NCR",1100,28.4088605,77.314687,2,2,2,Ready to Move,Resale,1,Semi-Furnished,2,Near By Metro Hospital,Flat,5000,Medium,Faridabad
159,9000000,"Sector 37D, Gurgaon, Sector 37D, Gurgaon, Delhi NCR",1815,28.455376,76.97621181,3,3,3,Ready to Move,Resale,1,Semi-Furnished,2,Not Mentioned,Individual House,4958.677686,Very Large,Gurgaon
160,17500000,"Moti Nagar, New Delhi, Moti Nagar, New Delhi - West, Delhi NCR",1600,28.66605949,77.15013123,3,2,3,Ready to Move,Resale,1,Unfurnished,4,near- CTC mall,Individual House,10937.5,Large,New Delhi - West
161,9900000,"Faridabad, Faridabad, Delhi NCR",1650,28.48146057,77.31151581,4,3,2,Ready to Move,Resale,1,Semi-Furnished,2,Not Mentioned,Flat,6000,Large,Faridabad
162,8500000,"Indirapuram, Ghaziabad, Vaibhav Khand, Ghaziabad, Delhi NCR",1460,28.63822365,77.3663559,3,3,3,Ready to Move,Resale,1,Semi-Furnished,3,Shipra Mall,Flat,5821.917808,Large,Ghaziabad
163,5890000,"Shakti Khand 2, Shakti Khand 2, Ghaziabad, Delhi NCR",1150,28.64673996,77.37094879,3,2,2,Ready to Move,New Property,1,Semi-Furnished,1,"Near Swarn Jayanti park, Cambridge school and Omaxe plaza",Flat,5121.73913,Medium,Ghaziabad
164,9000000,"Indirapuram, Ghaziabad, Indirapuram, Ghaziabad, Delhi NCR",1800,28.646093,77.384003,3,2,2,Ready to Move,Resale,1,Semi-Furnished,2,DPS school,Flat,5000,Very Large,Ghaziabad
165,24000000,"Cgu061., Kirti Nagar, New Delhi - West, Delhi NCR",1632,28.666059,77.150134,3,3,3,Ready to Move,Resale,1,Semi-Furnished,3,"Location AdvantageDLF Capital Greens located at Moti Nagar, Shivaji",Flat,14705.88235,Large,New Delhi - West
166,12000000,"Sector 45, Noida, Sector 45, Noida, Delhi NCR",1850,28.548787,77.346032,3,4,4,Ready to Move,Resale,1,Semi-Furnished,2,Not Mentioned,Flat,6486.486486,Very Large,Noida
167,6400000,"GA 703 Assotech Windsor court Sector 78Noida, Sector 78, Noida, Delhi NCR",1390,28.56118696,77.3865692,3,3,3,Ready to Move,Resale,1,Semi-Furnished,2,Near by Sector 76 metro station Noida,Flat,4604.316547,Large,Noida
168,33000000,"Golf course Extension Road, Gurgaon, Sector 66, Gurgaon, Delhi NCR",3699,28.401255,77.053437,4,4,3,Ready to Move,New Property,2,Semi-Furnished,3,Not Mentioned,Individual House,8921.330089,Very Large,Gurgaon
169,10000000,"Second Floor Villa 83 Block III Charmwood Village, Charmwood Village, Faridabad, Delhi NCR",1908,28.4913752,77.2908548,4,3,1,Ready to Move,Resale,1,Semi-Furnished,2,Near by HDFC Bank,Individual House,5241.090147,Very Large,Faridabad
170,8500000,"Sector 75, Noida, Sector 75, Noida, Delhi NCR",1550,28.57844059,77.38140753,3,2,3,Ready to Move,Resale,1,Semi-Furnished,3,Not Mentioned,Flat,5483.870968,Large,Noida
171,7400000,"Sector 143B, Noida, Uttar Pardes, Sector 143 B, Noida, Delhi NCR",1480,28.495486,77.25219,3,3,2,Ready to Move,Resale,1,Semi-Furnished,2,Not Mentioned,Individual House,5000,Large,Noida
172,4300000,"151., Indirapuram, Ghaziabad, Delhi NCR",968,28.6493479,77.3696259,3,2,1,Ready to Move,Resale,1,Unfurnished,2,Not Mentioned,Flat,4442.14876,Small,Ghaziabad
173,5800000,"Sector 143A, Noida, Delhi NCR",1150,28.4992485,77.42980194,2,2,2,Ready to Move,Resale,1,Unfurnished,2,Not Mentioned,Flat,5043.478261,Medium,Noida
174,9000000,"Sector 35 Sohna, Gurgaon, Delhi NCR",1750,28.283682,77.047379,3,3,2,Ready to Move,Resale,1,Unfurnished,2,Not Mentioned,Flat,5142.857143,Very Large,Gurgaon
175,3500000,"Upper Ground Floor Plot Number 101 Lane No 6  Dwarka Mor Delhi West Delhi, Dwarka Mor, New Delhi - West, Delhi NCR",800,28.63477325,77.04909515,3,2,1,Ready to Move,New Property,1,Unfurnished,2,Near Dwarka mod metro station,Flat,4375,Small,New Delhi - West
176,12500000,"Sector 19 Dwarka, New Delhi - Dwarka, Delhi NCR",1700,28.57751279,77.04253534,2,2,3,Ready to Move,Resale,1,Semi-Furnished,2,"Opp. OPG World School, Near Sant Nirankari Chowk",Flat,7352.941176,Very Large,New Delhi - Dwarka
177,6200000,"Flat no. 1404 Floor 14th Tower Peace  Wing B Sikka Karni Green Sector 78 Noida, Sector 78, Noida, Delhi NCR",1210,28.5604873,77.384084,2,3,3,Ready to Move,Resale,1,Semi-Furnished,3,Near Sector 76 and Sector 100 Metro station Noida,Flat,5123.966942,Medium,Noida
178,2550000,"Swaroop garden gurgaon, Rajendra Park, Gurgaon, Delhi NCR",540,28.49748611,77.02713013,2,2,1,Ready to Move,Resale,1,Semi-Furnished,1,near Rajendra park police station,Flat,4722.222222,Small,Gurgaon
179,6000000,"Rr 9 top floor, naveen shahdara., Naveen Shahdara, New Delhi - East, Delhi NCR",1100,28.6761322,77.28523254,2,2,1,Ready to Move,Resale,1,Furnished,2,opp shahdra metro station,Flat,5454.545455,Medium,New Delhi - East
180,11000000,"Mahindra Aura, Sector 110 A, Sector 110A, Gurgaon, Delhi NCR",1610,28.513139,77.025952,3,3,3,Ready to Move,Resale,1,Semi-Furnished,2,Not Mentioned,Flat,6832.298137,Large,Gurgaon
181,11000000,"Indirapuram, Ghaziabad, Delhi NCR",2245,28.64859324,77.37943921,4,3,2,Ready to Move,Resale,1,Semi-Furnished,2,wow palace banquet hall,Individual House,4899.777283,Very Large,Ghaziabad
182,4100000,"E 55B Vishwakarma Colony MB Road New Delhi 110044, Vishwakarma Colony, New Delhi - South, Delhi NCR",900,28.52402496,77.21276093,3,2,1,Ready to Move,New Property,1,Furnished,1,Near Indian Oil Petrol Pump,Flat,4555.555556,Small,New Delhi - South
183,9300000,"FLAT NO.301FLOOR-3RDBlock-HSECTOR 78-79MAPSKOMOUNTIVILLEGURGAON, Sector 79, Gurgaon, Delhi NCR",1490,28.37423557,76.95241631,3,3,3,Ready to Move,Resale,1,Semi-Furnished,2,Not Mentioned,Flat,6241.610738,Large,Gurgaon
184,7500000,"342 Durgapuri Extension Delhi India, Durgapuri Extension, New Delhi - East, Delhi NCR",1250,28.68654251,77.29959869,3,2,2,Ready to Move,Resale,2,Semi-Furnished,1,nearby Kala niketan school,Flat,6000,Medium,New Delhi - East
185,4500000,"flat no 1203 Paras seasons 168 Noida, Sector 168, Noida, Delhi NCR",1130,28.49629327,77.40851995,3,2,2,Ready to Move,New Property,1,Semi-Furnished,2,Near by The Golden palm sector 168 Noida,Flat,3982.300885,Medium,Noida
186,9400000,"15051., Sector 150, Noida, Delhi NCR",1625,28.42491581,77.486721,3,2,3,Ready to Move,New Property,1,Semi-Furnished,2,Not Mentioned,Individual House,5784.615385,Large,Noida
187,3400000,"Lg3/78., Sector 6 Vaishali, Ghaziabad, Delhi NCR",900,28.6485885,77.3533389,2,2,1,Ready to Move,Resale,1,Unfurnished,2,Not Mentioned,Flat,3777.777778,Small,Ghaziabad
188,7000000,"Delhi., Subhash Park-Shahdara, New Delhi - East, Delhi NCR",1008,28.68657303,77.29962921,3,2,1,Ready to Move,Resale,2,Semi-Furnished,1,Nearby Shanti nursing home,Flat,6944.444444,Medium,New Delhi - East
189,22500000,"Kalkaji, New Delhi - South, Delhi NCR",1900,28.54366493,77.25489807,3,3,2,Ready to Move,Resale,1,Unfurnished,2,"L Block Gurudwara, NGF Tiny Tot School",Flat,11842.10526,Very Large,New Delhi - South
190,20000000,"D 1001 BPTP Freedom Park Life Sector 57 Gurgaon, Sector 57, Gurgaon, Delhi NCR",2428,28.42343946,77.06910666,3,4,3,Ready to Move,Resale,2,Semi-Furnished,3,Near By Artemis Hospital,Flat,8237.23229,Very Large,Gurgaon
191,9700000,"C-177, First Floot, Kendriya Vihar, Sector 56, Gurgaon, Kendriya Vihar, Gurgaon, Delhi NCR",1250,28.42451064,77.10132459,3,2,2,Ready to Move,Resale,2,Semi-Furnished,0,Nearest metro station is Sector 56 which is less than 1 km away.,Individual House,7760,Medium,Gurgaon
192,13500000,"601., Sector 21C, Faridabad, Delhi NCR",2800,28.43034935,77.29561615,4,4,2,Ready to Move,Resale,7,Furnished,1,Near to Asian Hospital and Park Plaza Hotel,Flat,4821.428571,Very Large,Faridabad
193,4500000,"Near Andolan Park, Canara Bank, Savitri Nagar Village, New Delhi - South, Delhi NCR",800,28.539814,77.21868134,2,2,2,Ready to Move,Resale,1,Semi-Furnished,2,Not Mentioned,Flat,5625,Small,New Delhi - South
194,2650000,"Shivani enclave old palam road kakrola dwarka., Kakrola, New Delhi - Dwarka, Delhi NCR",608,28.63474274,77.04910278,2,2,1,Ready to Move,Resale,1,Unfurnished,2,Near MBD school,Flat,4358.552632,Small,New Delhi - Dwarka
195,2900000,"Bhopura, Ghaziabad, Delhi NCR",965,28.728555,77.337353,2,2,2,Ready to Move,Resale,1,Semi-Furnished,2,Not Mentioned,Flat,3005.181347,Small,Ghaziabad
196,7000000,"Sector 119, Noida, Delhi NCR",1256,28.58986171,77.40343376,2,2,1,Ready to Move,Resale,1,Semi-Furnished,2,Not Mentioned,Flat,5573.248408,Large,Noida
197,79000000,"Sector 53 Vipul Belmonte  Golf Course Road Gurgaon  Flat no.1402 Tower 2, Sector 53, Gurgaon, Delhi NCR",7200,28.44073838,77.10126474,5,6,4,Ready to Move,Resale,3,Semi-Furnished,2,Near by IBIS Hospital,Flat,10972.22222,Very Large,Gurgaon
198,6040000,"Raj Nagar Extension, NH 58, Ghaziabad, Uttar Pradesh, India., Raj Nagar, Ghaziabad, Delhi NCR",1341,28.682107,77.4465784,3,2,2,Ready to Move,Resale,1,Semi-Furnished,2,"raj nagar extension, NH-58",Flat,4504.101417,Large,Ghaziabad
199,22000000,"Sector 27, Greater Noida, Noida, Uttar Pradesh, Sector 27, Greater Noida, Delhi NCR",2835,28.470149,77.535673,4,5,4,Ready to Move,Resale,2,Unfurnished,2,"Next to Jaypee Golf Residences, Near YMCA Greens , opp Eldeco",Individual House,7760.141093,Very Large,Greater Noida
200,3000000,"Laxmi Nagar, New Delhi - East, Delhi NCR",630,28.68641663,77.29958344,2,2,1,Ready to Move,Resale,1,Semi-Furnished,2,Nearby Nirman Viahr Metro Station,Flat,4761.904762,Small,New Delhi - East
201,23500000,"Golf Course Road, Gurgaon, Golf Course Road, Gurgaon, Delhi NCR",2985,28.441368,77.098124,3,3,2,Ready to Move,Resale,1,Semi-Furnished,2,Not Mentioned,Flat,7872.696817,Very Large,Gurgaon
202,15000000,"Sector 75, Noida, Sector 75, Noida, Delhi NCR",2550,28.5750243,77.3803,4,4,5,Ready to Move,Resale,2,Semi-Furnished,2,Near Sector 50 Metro Station,Flat,5882.352941,Very Large,Noida
203,11000000,"Sector 70 Gurgaon, Sector 70, Gurgaon, Delhi NCR",1510,28.3930662,77.022442,3,2,4,Ready to Move,Resale,1,Semi-Furnished,2,"Near Tata Primanti , Sohna Road. 30 Min to Airport, 10 min to NH8",Flat,7284.768212,Large,Gurgaon
204,4500000,"janki puri, Uttam Nagar, New Delhi - West, Delhi NCR",1000,28.6212883,77.05307007,3,2,1,Ready to Move,Resale,1,Semi-Furnished,2,Not Mentioned,Flat,4500,Medium,New Delhi - West
205,5000000,"sanskriti Vihar GC 16, C-16, Greater Noida, Delhi NCR",1205,28.453581,77.556221,2,2,2,Ready to Move,Resale,1,Semi-Furnished,2,Not Mentioned,Flat,4149.377593,Medium,Greater Noida
206,4000000,"Gaur Green City 2, Avenue 16, Noida Extension Block D, Noida, Delhi NCR",1010,28.619028,77.425972,2,2,3,Ready to Move,Resale,1,Semi-Furnished,4,Noida Extension,Flat,3960.39604,Medium,Noida
207,6200000,"palam Village Delhi, Palam, New Delhi - Dwarka, Delhi NCR",950,28.63475037,77.0491333,3,2,1,Ready to Move,Resale,1,Semi-Furnished,1,Near Ramfal Chowk,Flat,6526.315789,Small,New Delhi - Dwarka
208,9800000,"Sector 37D, Gurgaon, Delhi NCR",1765,28.4460523,76.9772858,3,3,2,Ready to Move,Resale,1,Unfurnished,2,Not Mentioned,Flat,5552.407932,Very Large,Gurgaon
209,6600000,"Sector 76, Noida, Delhi NCR",1455,28.5684777,77.3775,3,3,4,Ready to Move,Resale,1,Semi-Furnished,2,Metro Station Sec-78,Flat,4536.082474,Large,Noida
210,5500000,"Sector 15 Dwarka, New Delhi - Dwarka, Delhi NCR",1000,28.615032,77.0290715,3,2,2,Ready to Move,Resale,1,Semi-Furnished,2,Not Mentioned,Flat,5500,Medium,New Delhi - Dwarka
211,14000000,"1162., Sector 57, Gurgaon, Delhi NCR",1750,28.4215541,77.0780609,3,4,2,Ready to Move,Resale,10,Semi-Furnished,1,Not Mentioned,Flat,8000,Very Large,Gurgaon
212,15000000,"Sector 56, Gurgaon, Delhi NCR",1900,28.42443657,77.0982132,3,3,2,Ready to Move,Resale,1,Semi-Furnished,2,Not Mentioned,Flat,7894.736842,Very Large,Gurgaon
213,13200000,"Vasundhara sector 5 ghaziabad, Vasundhara, Ghaziabad, Delhi NCR",1935,28.64231873,77.4211731,3,3,2,Ready to Move,Resale,1,Furnished,1,Olive county,Flat,6821.705426,Very Large,Ghaziabad
214,2800000,"Shalimar garden Ghaziabad, Shalimar garden, Ghaziabad, Delhi NCR",800,28.63578224,77.43241882,2,2,1,Ready to Move,Resale,1,Semi-Furnished,2,Mata chowk,Individual House,3500,Small,Ghaziabad
215,14000000,"naer bluebells school, Sector 4, Gurgaon, Delhi NCR",1800,28.47489357,77.00980377,3,3,1,Ready to Move,Resale,1,Unfurnished,2,school. park. temple,Flat,7777.777778,Very Large,Gurgaon
216,3400000,"Indirapuram, Ghaziabad, Delhi NCR",850,28.6493479,77.3696259,2,2,2,Ready to Move,Resale,1,Unfurnished,2,Not Mentioned,Flat,4000,Small,Ghaziabad
217,11500000,"Sector 68, Gurgaon, Sector 68, Gurgaon, Delhi NCR",1478,28.386791,77.049466,2,2,3,Ready to Move,Resale,1,Semi-Furnished,2,Not Mentioned,Flat,7780.784844,Large,Gurgaon
218,3300000,"201 Whitney homes sector 121 noida, Sector 121, Noida, Delhi NCR",900,28.60042,77.44546509,2,2,1,Ready to Move,New Property,1,Unfurnished,2,near parthla Chowk sector 121 noida,Flat,3666.666667,Small,Noida
219,6000000,"Alistonia Estate, Greater Noida, Delhi NCR",1234,28.43831635,77.51483154,2,2,2,Ready to Move,Resale,1,Furnished,2,Not Mentioned,Flat,4862.236629,Medium,Greater Noida
220,5600000,"Zeta 2, Greater Noida, Delhi NCR",1507,28.517742,77.529334,2,3,2,Ready to Move,Resale,1,Semi-Furnished,2,Not Mentioned,Individual House,3715.992037,Large,Greater Noida
221,5800000,"FirstTower at Gate2T18 Flat Floor-No06-02, Type C, Unit Type 3BHK Servent 3T UT., Sector 137, Noida, Delhi NCR",1365,28.58907509,77.32030487,3,3,2,Ready to Move,Resale,1,Unfurnished,2,Near by Logix blossom county Noida,Flat,4249.084249,Large,Noida
222,2100000,"Avantika Extension, Ghaziabad, Delhi NCR",615,28.6738471,77.4829531,2,2,1,Ready to Move,Resale,1,Unfurnished,2,Not Mentioned,Flat,3414.634146,Small,Ghaziabad
223,5200000,"Antriksh Golf view 1Sector 78Noida, Sector 78, Noida, Delhi NCR",1140,28.5575028,77.38646497,2,2,3,Ready to Move,Resale,1,Semi-Furnished,3,Near by sector 76 Metro station Noida,Individual House,4561.403509,Medium,Noida
224,8000000,"Sector 76, Gurgaon, Sector 76, Gurgaon, Delhi NCR",1325,28.39343,76.99731,2,2,2,Ready to Move,Resale,702,Semi-Furnished,4,Not Mentioned,Individual House,6037.735849,Large,Gurgaon
225,7650000,"Sector 47 Sohna Road, Sector 47, Gurgaon, Delhi NCR",997,28.425657,77.04300339,2,2,2,Ready to Move,Resale,1,Semi-Furnished,2,"Near By 300mtr Raheja Mall, ILD Mall and Omaxe Mall",Flat,7673.019057,Medium,Gurgaon
226,5500000,"plot number 2261 Adarsh Nagar gurgaon, Adarsh Nagar, Gurgaon, Delhi NCR",1100,28.49742317,77.02734375,3,2,1,Ready to Move,Resale,1,Semi-Furnished,1,near Gurgaon bus stand,Flat,5000,Medium,Gurgaon
227,5400000,"Eldeco Golf View Apartments, Sector Omega 1, Greater Noida, Uttar Pradesh, Omega 1, Greater Noida, Delhi NCR",1405,28.4570313,77.514304,3,2,3,Ready to Move,Resale,2,Semi-Furnished,2,"Close proximity to Metro Station, Knowledge Park and Pari Chowk.",Individual House,3843.41637,Large,Greater Noida
228,8500000,"Sector 119, Noida, Sector 119, Noida, Delhi NCR",1775,28.588371,77.400313,3,3,3,Ready to Move,Resale,2,Semi-Furnished,2,Not Mentioned,Flat,4788.732394,Very Large,Noida
229,6000000,"A5 Kewal Park Extension Delhi India, Kewal Park, New Delhi - North, Delhi NCR",1000,28.68641853,77.29956055,3,3,2,Ready to Move,Resale,1,Semi-Furnished,2,Not Mentioned,Flat,6000,Medium,New Delhi - North
230,17500000,"c113 3rd floor Shakti nagar extension ashok vihar phase 3 Delhi 110052, Ashok Vihar Phase 3, New Delhi - North, Delhi NCR",1658,28.68220329,77.18806458,3,2,1,Ready to Move,New Property,2,Semi-Furnished,1,State Bank of India Ashok vihar phase 3.,Flat,10554.8854,Very Large,New Delhi - North
231,2450000,"Sadullapur, Near Bloom International School, Greater Noida West, Sadullapur, Greater Noida, Delhi NCR",630,28.591666,77.484749,2,2,1,Ready to Move,Resale,1,Semi-Furnished,2,"near bloom international school , GR Noida west",Flat,3888.888889,Small,Greater Noida
232,7300000,"Indirapuram Ghaziabad, Indirapuram, Ghaziabad, Delhi NCR",1742,28.641756,77.37885936,3,2,1,Ready to Move,Resale,1,Semi-Furnished,2,DPS School,Flat,4190.585534,Very Large,Ghaziabad
233,14500000,"Dwarka Sector 23, New Delhi, Sector 23 Dwarka, New Delhi - Dwarka, Delhi NCR",1650,28.56213384,77.05678938,3,2,3,Ready to Move,Resale,1,Semi-Furnished,2,near  sector 21 metro,Individual House,8787.878788,Large,New Delhi - Dwarka
234,4800000,"Sector 46, Noida, Delhi NCR",950,28.55075433,77.36168745,2,2,3,Ready to Move,Resale,1,Semi-Furnished,2,Not Mentioned,Flat,5052.631579,Small,Noida
235,4200000,"Gyan Khand 1, Ghaziabad, Delhi NCR",800,28.641779,77.3502969,2,2,2,Ready to Move,Resale,1,Semi-Furnished,2,Not Mentioned,Flat,5250,Small,Ghaziabad
236,12800000,"ireo uptown Sector 66 gurgaon, Sector 66, Gurgaon, Delhi NCR",1472,28.39522652,77.05988662,2,3,3,Ready to Move,New Property,1,Semi-Furnished,3,"near to metro and near market,near to school",Flat,8695.652174,Large,Gurgaon
237,27500000,"Plot no- 77 Sector 13 Dwarka, Sector 13 Dwarka, New Delhi - Dwarka, Delhi NCR",2250,28.5994675,77.0349205,4,4,2,Ready to Move,New Property,1,Semi-Furnished,2,"Reliance mall ,Raddison hotel,Iskon temple,Vegas mall.",Flat,12222.22222,Very Large,New Delhi - Dwarka
238,12000000,"K tower, Sector 45, Noida, Delhi NCR",1850,28.548787,77.346032,3,4,2,Ready to Move,Resale,2,Semi-Furnished,2,Close to metro station and opposite to Amity university,Flat,6486.486486,Very Large,Noida
239,7500000,"Sector 30, Gurgaon, Jal Vayu Vihar, Gurgaon, Delhi NCR",900,28.45847235,77.05255654,2,2,1,Ready to Move,Resale,1,Semi-Furnished,2,Not Mentioned,Individual House,8333.333333,Small,Gurgaon
240,3500000,"Shalimar Garden Extension 1, Ghaziabad, Delhi NCR",1050,28.63367653,77.43097687,2,2,2,Ready to Move,Resale,2,Furnished,2,Shiv chowk,Flat,3333.333333,Medium,Ghaziabad
241,3850000,"D Block Jawahar Park KhanpurNew Delhi, Jawahar Park, New Delhi - South, Delhi NCR",720,28.52319527,77.21430969,2,2,1,Ready to Move,Resale,1,Unfurnished,2,Opposite Ram Mandir,Individual House,5347.222222,Small,New Delhi - South
242,8000000,"Kaushambi, Ghaziabad, Kaushambi, Ghaziabad, Delhi NCR",1550,28.63544909,77.32381434,3,2,2,Ready to Move,Resale,1,Semi-Furnished,3,Kaushambi Metro station,Flat,5161.290323,Large,Ghaziabad
243,4350000,"Omicron 1, Greater Noida, Delhi NCR",1300,28.46267033,77.55830252,3,3,2,Ready to Move,Resale,1,Semi-Furnished,2,Not Mentioned,Flat,3346.153846,Large,Greater Noida
244,9000000,"Sector 107, Gurgaon, Delhi NCR",1536,28.514908,76.974388,2,2,4,Ready to Move,Resale,1,Semi-Furnished,2,Not Mentioned,Individual House,5859.375,Large,Gurgaon
245,5000000,"Tech Zone IV Gautam Budh NagarGreater Noida (West), Greater Noida West, Greater Noida, Delhi NCR",1285,28.605958,77.444512,2,2,4,Ready to Move,Resale,1,Unfurnished,2,"Near Pacific World School, Lotus Valley International School, IBM, J M International School",Flat,3891.050584,Large,Greater Noida
246,5800000,"House No 47 Block E  Floor 1 Sec 11 Faridabad, Sector 11, Faridabad, Delhi NCR",1350,28.34699821,77.32400513,3,2,2,Ready to Move,Resale,2,Semi-Furnished,2,Near By YMCA Metro Station,Individual House,4296.296296,Large,Faridabad
247,4200000,"Sector 1, Greater Noida, Delhi NCR",1335,28.5661101,77.4406099,2,2,2,Ready to Move,Resale,1,Semi-Furnished,2,Not Mentioned,Flat,3146.067416,Large,Greater Noida
248,8900000,"2931., Sushant Lok 1 Block C, Gurgaon, Delhi NCR",1000,28.454517,77.081868,2,2,2,Ready to Move,Resale,2,Semi-Furnished,0,"Very well located and has all amenities nearby, including hospital.",Flat,8900,Medium,Gurgaon
249,9500000,"T1 - 401., Sector 37D, Gurgaon, Delhi NCR",1811,28.45251307,76.97627035,3,3,4,Ready to Move,New Property,1,Semi-Furnished,2,"Close to populated areas, schools, shops, hospitals and malls.",Individual House,5245.720596,Very Large,Gurgaon
250,4600000,"Noida Extension, Greater Noida, Noida Extension, Greater Noida, Delhi NCR",1175,28.617567,77.426765,3,2,3,Ready to Move,Resale,1,Semi-Furnished,3,Near by Gaur Atulyam Noida extension Greater Noida,Flat,3914.893617,Medium,Greater Noida
251,20000000,"Sector 6 Dwarka, New Delhi - Dwarka, Delhi NCR",1700,28.5962,77.067013,3,3,2,Ready to Move,Resale,1,Semi-Furnished,2,Not Mentioned,Flat,11764.70588,Very Large,New Delhi - Dwarka
252,2900000,"Sector 107, Gurgaon, Dwarka-Manesar Expressway, Gurgaon, Delhi NCR",554,28.51348116,76.971479,2,2,2,Ready to Move,Resale,1,Semi-Furnished,2,Not Mentioned,Flat,5234.65704,Small,Gurgaon
253,13500000,"C4A/9A Janak Puri New Delhi 110058, Janakpuri, New Delhi - West, Delhi NCR",1500,28.621054,77.0905294,4,3,2,Ready to Move,Resale,1,Semi-Furnished,2,cghs dispensary jankpuri.,Flat,9000,Large,New Delhi - West
254,4000000,"Sector 88, Faridabad, Delhi NCR",1250,28.41891989,77.35557595,2,2,2,Ready to Move,Resale,1,Unfurnished,2,Not Mentioned,Flat,3200,Medium,Faridabad
255,28000000,"c-1/41 a, Budh Vihar Phase 1, New Delhi - Rohini, Delhi NCR",2200,28.63664055,77.12469482,6,5,2,Ready to Move,Resale,1,Semi-Furnished,2,Near 5 no. transforma,Flat,12727.27273,Very Large,New Delhi - Rohini
256,4000000,"Indirapuram, Ghaziabad, Uttar Pradesh, Gyan Khand 3, Ghaziabad, Delhi NCR",850,28.645341,77.35492932,2,2,1,Ready to Move,Resale,1,Semi-Furnished,0,near,Flat,4705.882353,Small,Ghaziabad
257,8000000,"Vasundhara Enclave, New Delhi - East, Delhi NCR",1000,28.60052361,77.31160783,2,2,2,Ready to Move,Resale,1,Semi-Furnished,2,Not Mentioned,Flat,8000,Medium,New Delhi - East
258,12900000,"Pocket 4 Akash Ganga Appartment  Sector 24, Sector 24 Rohini, New Delhi - Rohini, Delhi NCR",1400,28.72650572,77.08336654,3,2,2,Ready to Move,Resale,1,Semi-Furnished,2,Near delhi public school,Flat,9214.285714,Large,New Delhi - Rohini
259,9000000,"Sector 76, Noida, Delhi NCR",1325,28.56854169,77.37929993,3,2,3,Ready to Move,Resale,1,Semi-Furnished,2,Property is bang opposite Metro Station.,Flat,6792.45283,Large,Noida
260,3200000,"aditya world city NH 24 Ghaziabad, NH 24, Ghaziabad, Delhi NCR",840,28.683082,77.50921,2,2,2,Ready to Move,Resale,1,Semi-Furnished,2,Columbia Hospital,Flat,3809.52381,Small,Ghaziabad
261,4100000,"Block E, Sector 85, Faridabad, Sector 85, Faridabad, Delhi NCR",1065,28.4042306,77.3559561,3,2,3,Ready to Move,New Property,1,Semi-Furnished,2,Near to SRS Chowk.,Flat,3849.765258,Medium,Faridabad
262,7000000,"R025d101203/flat #1203., Greater Noida West, Noida, Delhi NCR",1585,28.605958,77.444512,3,3,3,Ready to Move,Resale,1,Semi-Furnished,2,Not Mentioned,Flat,4416.403785,Large,Noida
263,45000000,"N Block Greater Kailash 1, GK I, New Delhi - South, Delhi NCR",2700,28.52293205,77.21456909,4,4,2,Ready to Move,Resale,2,Semi-Furnished,1,Near By N block Market,Flat,16666.66667,Very Large,New Delhi - South
264,7500000,"Sector 119, Noida, Sector 119, Noida, Delhi NCR",1515,28.58986171,77.40343376,3,3,3,Ready to Move,Resale,1,Semi-Furnished,3,Near by Amrapali zodiac sector 120 Noida,Flat,4950.49505,Large,Noida
265,7100000,"Ranjeet Nagar, New Delhi - West, Delhi NCR",900,28.634758,77.04909515,2,2,2,Ready to Move,Resale,1,Semi-Furnished,2,Near Shadipur Metro station,Flat,7888.888889,Small,New Delhi - West
266,7000000,"E-1005, Prateek Laurel, sector-120, Sector 120, Noida, Delhi NCR",1135,28.58731051,77.39590178,2,2,1,Ready to Move,Resale,1,Semi-Furnished,2,Not Mentioned,Flat,6167.400881,Medium,Noida
267,8000000,"Sector 62Noida stellar park apartments, C Block, Noida, Delhi NCR",1500,28.61413193,77.36986542,3,3,1,Ready to Move,Resale,1,Semi-Furnished,2,Near by Fortis hospital Noida,Flat,5333.333333,Large,Noida
268,60000000,"TH - 63, Jaypee Wishtown, Jaypee Greens, Sector - 128, Noida, Sector 128, Noida, Delhi NCR",5000,28.526555,77.363882,5,6,4,Ready to Move,Resale,2,Semi-Furnished,2,"Jaypee Greens, Jaypee Wishtown, Sector 128",Flat,12000,Very Large,Noida
269,5450000,"Greater Noida West, Greater Noida West, Greater Noida, Delhi NCR",1470,28.579593,77.445197,3,2,3,Ready to Move,Resale,1,Semi-Furnished,2,Near by Supertech ecovillage I Greater Noida West,Flat,3707.482993,Large,Greater Noida
270,22000000,"C 409 B  Sushant Lok Phase 1  Gurgaon, Sushant Lok 1 Block C, Gurgaon, Delhi NCR",2700,28.34468651,77.32616425,4,4,2,Ready to Move,Resale,3,Semi-Furnished,1,Near Vyapaar Kendra Market,Flat,8148.148148,Very Large,Gurgaon
271,15000000,"Sector 168, Noida, Sector 168, Noida, Delhi NCR",2275,28.493247,77.408015,3,4,5,Ready to Move,Resale,1,Semi-Furnished,3,Vicinity to many established offices and metro station. Peaceful.,Flat,6593.406593,Very Large,Noida
272,4900000,"Gaur Yamuna City 16th Park View, Taj Expressway, Noida, Delhi NCR",1475,28.43244553,77.50791931,3,3,3,Ready to Move,Resale,1,Unfurnished,2,Gaur Yamuna City,Flat,3322.033898,Large,Noida
273,12800000,"Sector 85, Gurgaon, Sector 85, Gurgaon, Delhi NCR",1837,28.409389,76.951659,3,3,2,Ready to Move,Resale,1,Semi-Furnished,2,Please refer to snapshot for more details.,Flat,6967.882417,Very Large,Gurgaon
274,18000000,"D-7/23 Sector 15 Rohini, Sector 15 Rohini, New Delhi - Rohini, Delhi NCR",2400,28.63474083,77.04914856,4,2,3,Ready to Move,Resale,1,Unfurnished,2,Near Sanatan Dharma Mandir,Flat,7500,Very Large,New Delhi - Rohini
275,9000000,"Sector 137, Noida, Sector 137, Noida, Delhi NCR",1950,28.509118,77.413416,4,3,4,Ready to Move,Resale,1,Semi-Furnished,2,Not Mentioned,Flat,4615.384615,Very Large,Noida
276,14500000,"Sector 5, Vasundhara, Ghaziabad, Uttar Pradesh., Sector 5 Vasundhara, Ghaziabad, Delhi NCR",1935,28.660121,77.379704,3,4,3,Ready to Move,Resale,1,Semi-Furnished,2,Not Mentioned,Flat,7493.540052,Very Large,Ghaziabad
277,32500000,"Sector C Vasant Kunj, New Delhi - South, Delhi NCR",2400,28.53547478,77.14489746,3,3,3,Ready to Move,Resale,2,Furnished,0,Near Vasant Valley Public School and Spinal Injuries Hospital,Flat,13541.66667,Very Large,New Delhi - South
278,26000000,"H block dlf phase 1 Gurugram, DLF City Phase 1, Gurgaon, Delhi NCR",2430,28.49748039,77.02710724,3,3,2,Ready to Move,Resale,1,Semi-Furnished,1,near sikanderpur metro station,Flat,10699.58848,Very Large,Gurgaon
279,5900000,"Sector 76, Noida, Sector 76, Noida, Delhi NCR",995,28.575883,77.38535896,2,2,3,Ready to Move,Resale,1,Semi-Furnished,2,Near by Sector 50 Metro station Noida,Flat,5929.648241,Medium,Noida
280,4800000,"Gurgaon, Sector 105, Gurgaon, Delhi NCR",1000,28.4975071,77.02711487,3,3,2,Ready to Move,Resale,1,Unfurnished,2,near vgr shopping centre and axis bank atm,Flat,4800,Medium,Gurgaon
281,12000000,"Sector 79, Gurgaon, Delhi NCR",1983,28.35895365,76.971587,3,3,5,Ready to Move,Resale,2,Semi-Furnished,2,near imt Manesar chowk,Flat,6051.437216,Very Large,Gurgaon
282,7800000,"Sector 107, Noida, Delhi NCR",1295,28.54291259,77.37203149,2,2,2,Ready to Move,Resale,1,Semi-Furnished,2,Not Mentioned,Individual House,6023.166023,Large,Noida
283,7000000,"G T Road, Ghaziabad, Delhi NCR",1820,28.6761798,77.39628201,3,3,3,Ready to Move,Resale,2,Semi-Furnished,1,Walking distance (350 mts) from working Arthala metro station.,Flat,3846.153846,Very Large,Ghaziabad
284,3500000,"Sector 2 Rajendra Nagar, Ghaziabad, Delhi NCR",800,28.687614,77.351924,2,2,2,Ready to Move,Resale,1,Semi-Furnished,2,Not Mentioned,Flat,4375,Small,Ghaziabad
285,10800000,"Sector 137, Noida, Delhi NCR",1895,28.508273,77.40897616,3,3,2,Ready to Move,Resale,1,Semi-Furnished,2,Not Mentioned,Flat,5699.208443,Very Large,Noida
286,9200000,"Vasundhara Enclave, New Delhi - East, Delhi NCR",1000,28.60172462,77.31781006,2,2,2,Ready to Move,Resale,1,Furnished,2,"Connects to 3 metro stations , only 0.5 Km from Dharamshila Hospital",Individual House,9200,Medium,New Delhi - East
287,10000000,"Nehru Nagar Ghaziabad, Nehru Nagar, Ghaziabad, Delhi NCR",1800,28.63609123,77.43346405,3,3,1,Ready to Move,New Property,1,Unfurnished,1,vedaa's global school,Flat,5555.555556,Very Large,Ghaziabad
288,4800000,"Flat B-1201, BPTP Princess Park, Sector 86, Neherpar, Faridabad, Faridabad, Sector 86, Faridabad, Delhi NCR",1487,28.40652341,77.34299342,3,2,3,Ready to Move,Resale,1,Semi-Furnished,2,"Schools,colleges,Hospitals,malls and Metro station within 1 km",Flat,3227.97579,Large,Faridabad
289,17500000,"Sector 63A, Gurgaon, Delhi NCR",2400,28.397099,77.086716,3,3,2,Ready to Move,Resale,2,Semi-Furnished,1,Near TATA Raisina and Grand Hyatt Hotel.,Flat,7291.666667,Very Large,Gurgaon
290,13500000,"Sector 43, Gurgaon, Delhi NCR",2300,28.45518494,77.08667755,3,3,3,Ready to Move,Resale,1,Furnished,2,Not Mentioned,Flat,5869.565217,Very Large,Gurgaon
291,8500000,"Alpha 1, Greater Noida, Uttar Pradesh",1545,28.47346783,77.5053686,3,3,2,Ready to Move,Resale,1,Semi-Furnished,2,Near pari chowk,Flat,5501.618123,Large,Greater Noida
292,4500000,"Hari Nagar Ashram New Delhi, Hari Nagar Ashram, New Delhi - South, Delhi NCR",1000,28.49679565,77.22851563,2,2,1,Ready to Move,Resale,1,Unfurnished,2,Near Ashram Metro Station,Flat,4500,Medium,New Delhi - South
293,15800000,"Sector 51, Gurgaon, Delhi NCR",2300,28.4287815,77.0661409,3,3,2,Ready to Move,Resale,1,Semi-Furnished,2,"Right next to Artemis Hospital, Sec-51",Flat,6869.565217,Very Large,Gurgaon
294,32500000,"New Delhi, Safdarjung Enclave, Safdarjung Enclave, New Delhi - South, Delhi NCR",1829,28.564027,77.1945069,3,3,2,Ready to Move,Resale,1,Furnished,2,Not Mentioned,Individual House,17769.27283,Very Large,New Delhi - South
295,6900000,"Indirapuram, Ghaziabad, Indirapuram, Ghaziabad, Delhi NCR",1362,28.650108,77.363755,3,3,4,Ready to Move,Resale,1,Furnished,2,"Sector 62, Chowki Noida and near to Jaipuria Sunrise Plaza Indirapuram",Flat,5066.079295,Large,Ghaziabad
296,9000000,"Siddhartha Vihar Ghaziabad, Siddhartha Vihar, Ghaziabad, Delhi NCR",1380,28.646286,77.406051,3,2,4,Ready to Move,Resale,1,Semi-Furnished,3,DPS School,Flat,6521.73913,Large,Ghaziabad
297,2500000,"Rajendra Park, Gurgaon, Delhi NCR",560,28.49760246,77.02706909,2,2,1,Ready to Move,Resale,1,Semi-Furnished,2,near gurgaon railway station,Flat,4464.285714,Small,Gurgaon
298,29500000,"Gautam budh nagar, Greater Noida, Delhi NCR",3000,28.469204,77.511335,4,4,2,Ready to Move,Resale,1,Semi-Furnished,2,Not Mentioned,Flat,9833.333333,Very Large,Greater Noida
299,2200000,"Sudipto roy, c-1/33, sf4, dlf ankur vihar, loni, ghaziabad., Loni, Ghaziabad, Delhi NCR",900,28.738864,77.263605,2,2,1,Ready to Move,Resale,1,Semi-Furnished,0,Not Mentioned,Individual House,2444.444444,Small,Ghaziabad
300,14800000,"B3 Tower, Sector 52, Gurgaon, Delhi NCR",2050,28.44359908,77.07986181,3,4,4,Ready to Move,Resale,1,Semi-Furnished,2,Not Mentioned,Flat,7219.512195,Very Large,Gurgaon
301,47500000,"sector 48 Gurgaon, Sohna Road, Gurgaon, Delhi NCR",4600,28.41247483,77.039877,5,6,2,Ready to Move,Resale,1,Semi-Furnished,2,near shubhash chowk,Flat,10326.08696,Very Large,Gurgaon
302,9500000,"332 A, Tower - 32, Gulmohur Greens, Mohan Nagar, Ghaziabad, Uttar Pradesh, Pin - 201005, Gulmohur Greens, Ghaziabad, Delhi NCR",1775,28.68659592,77.37294769,3,3,3,Ready to Move,Resale,2,Semi-Furnished,2,Hindon Air Force Station,Flat,5352.112676,Very Large,Ghaziabad
303,2950000,"H2-1101., Bhopura, Ghaziabad, Delhi NCR",1050,28.72645304,77.33733853,2,2,2,Ready to Move,Resale,1,Semi-Furnished,2,Not Mentioned,Flat,2809.52381,Medium,Ghaziabad
304,2550000,"JC-34, Ground Floor, Khirki Extention, Malviya Nagar, New Delhi, Khirki extension, New Delhi - South, Delhi NCR",675,28.5315337,77.216852,2,2,2,Ready to Move,Resale,1,Semi-Furnished,2,Near Slect city Mall,Flat,3777.777778,Small,New Delhi - South
305,4500000,"Noida Extension, Greater Noida, Delhi NCR",1162,28.532593,77.399792,3,2,4,Ready to Move,Resale,1,Unfurnished,2,Closest to Noida and Delhi due to New bridge constructed recently connecting noida to Noida extension,Flat,3872.633391,Medium,Greater Noida
306,3480000,"Mahavir Enclave Part 1, New Delhi - Dwarka, Delhi NCR",700,28.5980365,77.0765245,2,2,2,Ready to Move,Resale,1,Semi-Furnished,2,Not Mentioned,Flat,4971.428571,Small,New Delhi - Dwarka
307,5400000,"Ace aspire, Noida Extension, Noida, Delhi NCR",1160,28.58945997,77.429712,2,2,3,Ready to Move,Resale,1,Semi-Furnished,2,Not Mentioned,Flat,4655.172414,Medium,Noida
308,7200000,"Flat No 701 Tower 3 Floor 7 Sec 48 Faridabad, Sector 48, Faridabad, Delhi NCR",2095,28.41063434,77.28620611,4,3,2,Ready to Move,Resale,2,Semi-Furnished,2,Near By Asian Hospital,Flat,3436.754177,Very Large,Faridabad
309,4760000,"GH 04, Sector 16C, Gaur City 2, Greater Noida, Uttar Pradesh 201318, Noida Extension, Noida, Delhi NCR",1190,28.620768,77.425805,2,2,3,Ready to Move,Resale,1,Semi-Furnished,3,Near sector 121 noida.,Individual House,4000,Medium,Noida
310,3200000,"Sector 49 Faridabad, Sector 49, Faridabad, Delhi NCR",810,28.34562111,77.32642365,3,2,1,Ready to Move,Resale,1,Unfurnished,2,Near By Achivers Mall,Flat,3950.617284,Small,Faridabad
311,10500000,"Plot No. GH 03/A, Sector 143, Noida, Uttar Pradesh 201306, Sector 143 B, Noida, Delhi NCR",1695,28.50320625,77.42758179,3,3,3,Ready to Move,Resale,2,Semi-Furnished,3,Near by Logix blossom greens Noida,Individual House,6194.690265,Very Large,Noida
312,3900000,"Sector 137, Noida, Delhi NCR",825,28.5073636,77.4091,2,2,2,Ready to Move,Resale,1,Unfurnished,2,Not Mentioned,Flat,4727.272727,Small,Noida
313,12500000,"Sector 88A, Gurugram, Haryana, Sector 88A, Gurgaon, Delhi NCR",1850,28.43058099,76.94862,3,3,4,Ready to Move,Resale,2,Semi-Furnished,2,near HP petrol pump,Flat,6756.756757,Very Large,Gurgaon
314,6960000,"Sector 143, Noida, Delhi NCR",1340,28.502597,77.428742,3,3,2,Ready to Move,Resale,1,Semi-Furnished,2,Not Mentioned,Flat,5194.029851,Large,Noida
315,2750000,"Dream Homes Nh24, NH 24, Ghaziabad, Delhi NCR",850,28.63857269,77.4308548,2,2,2,Ready to Move,Resale,1,Unfurnished,2,"Isckon, Railway Station, Columbia Hispital, DPS School and GURUKUL school",Flat,3235.294118,Small,Ghaziabad
316,35000000,"Sector 50, Noida, Delhi NCR, Sector 50, Noida, Delhi NCR",8500,28.57150078,77.37000275,10,7,7,Ready to Move,Resale,3,Semi-Furnished,2,Ramagya School,Individual House,4117.647059,Very Large,Noida
317,7700000,"Gurgaon - Faridabad Road, Gurgaon, Delhi NCR",1380,28.436305,77.13605,2,2,3,Ready to Move,Resale,1,Semi-Furnished,2,Not Mentioned,Individual House,5579.710145,Large,Gurgaon
318,6000000,"Ghaziabad kaushambi, Kaushambi, Ghaziabad, Delhi NCR",1300,28.6390639,77.3242583,2,2,3,Ready to Move,Resale,1,Semi-Furnished,2,Kaushambi metro station and Angel Mall,Flat,4615.384615,Large,Ghaziabad
319,6000000,"plot number 34 block H10 vatika Emelia floors sector 82 gurgaon, Sector 82, Gurgaon, Delhi NCR",1000,28.49747658,77.0271225,2,2,2,Ready to Move,New Property,1,Unfurnished,2,near shani mandir,Flat,6000,Medium,Gurgaon
320,4500000,"Second Floor with roof, Sector 5 Vaishali, Ghaziabad, Delhi NCR",1000,28.643642,77.34532,2,2,2,Ready to Move,Resale,1,Furnished,2,Not Mentioned,Flat,4500,Medium,Ghaziabad
321,6000000,"Chiranjeev Vihar, Ghaziabad, Chiranjiv Vihar, Ghaziabad, Delhi NCR",1350,28.675872,77.474266,3,2,3,Ready to Move,Resale,1,Semi-Furnished,2,Gulmohar tower society in Chiranjeevi vihar,Flat,4444.444444,Large,Ghaziabad
322,8500000,"Prateek Grand City, Siddharth Vihar, Ghaziabad, Siddhartha Vihar, Ghaziabad, Delhi NCR",1380,28.646286,77.406051,3,2,5,Ready to Move,Resale,1,Semi-Furnished,4,"Next to Indirapuram, Siddharth Vihar Ganga Jal Pariyogna",Flat,6159.42029,Large,Ghaziabad
323,7500000,"S 485 School block Shakarpur Delhi India, Shakarpur, New Delhi - East, Delhi NCR",1170,28.68652344,77.29961395,3,2,1,Ready to Move,Resale,2,Semi-Furnished,1,nearby Manokamna Mandir,Flat,6410.25641,Medium,New Delhi - East
324,4600000,"Kiran Garden, New Delhi - West, Delhi NCR",936,28.61848831,77.04781342,3,2,2,Ready to Move,Resale,1,Semi-Furnished,2,Not Mentioned,Flat,4914.529915,Small,New Delhi - West
325,5500000,"Sector 86, Faridabad, Delhi NCR",1646,28.40964244,77.33940931,3,3,2,Ready to Move,Resale,1,Semi-Furnished,2,Not Mentioned,Flat,3341.433779,Large,Faridabad
326,5500000,"Kamla Nagar, New Delhi - North, Delhi NCR",1000,28.68645096,77.29950714,3,2,1,Ready to Move,Resale,1,Semi-Furnished,2,Nearby Clock Tower.,Flat,5500,Medium,New Delhi - North
327,6690000,"Sector 80, Faridabad, Delhi NCR",1625,28.3751182,77.34874476,3,2,2,Ready to Move,Resale,1,Semi-Furnished,2,Not Mentioned,Individual House,4116.923077,Large,Faridabad
328,4500000,"Sector 7, Gurgaon, Delhi NCR",800,28.4658641,77.0133095,2,2,2,Ready to Move,Resale,1,Furnished,2,Not Mentioned,Individual House,5625,Small,Gurgaon
329,7600000,"Sector 107, Gurgaon, Sector 107, Gurgaon, Delhi NCR",1534,28.514908,76.974388,3,2,4,Ready to Move,Resale,1,Semi-Furnished,2,near Dharampur village,Flat,4954.367666,Large,Gurgaon
330,9000000,"vaishali Ghaziabad, Sector 3 Vaishali, Ghaziabad, Delhi NCR",1675,28.64155769,77.34053802,3,2,3,Ready to Move,Resale,1,Semi-Furnished,2,Shopprix Mall,Flat,5373.134328,Very Large,Ghaziabad
331,2450000,"sec 5 Vasundhara Ghaziabad, Sector 5 Vasundhara, Ghaziabad, Delhi NCR",710,28.63623238,77.43350983,2,2,1,Ready to Move,Resale,1,Semi-Furnished,2,Olive County,Individual House,3450.704225,Small,Ghaziabad
332,5400000,"C-16, Greater Noida, Delhi NCR",1290,28.453581,77.556221,2,2,3,Ready to Move,Resale,1,Semi-Furnished,2,Mahagun mall,Individual House,4186.046512,Large,Greater Noida
333,9700000,"Flat no. 703 7th Floor  Multistorey Appartmemt Tower Alpine Divine Meadows Sector 108 Noida 201301, Sector 108, Noida, Delhi NCR",1758,28.52544019,77.37445081,3,4,3,Ready to Move,Resale,1,Semi-Furnished,2,Near 108 IGL CNG Pump,Flat,5517.633675,Very Large,Noida
334,8500000,"Sector 93Noida parsvanath srishti, Sector 93, Noida, Delhi NCR",1569,28.51853317,77.38684415,3,3,3,Ready to Move,Resale,2,Semi-Furnished,2,Near by Eldeco utopia sector 93 Noida,Flat,5417.463352,Large,Noida
335,8000000,"New krishna nagar, gali no-5 near radheypuri jain mandir, Krishna Nagar, New Delhi - East, Delhi NCR",1488,28.68657112,77.29962921,3,2,1,Ready to Move,Resale,1,Unfurnished,2,near radheypuri jain mandir,Flat,5376.344086,Large,New Delhi - East
336,4200000,"Ajnara Le Garden Greater Noida West, Greater Noida West, Greater Noida, Delhi NCR",1245,28.606945,77.45557857,3,2,3,Ready to Move,Resale,1,Semi-Furnished,2,Near by Gulshan Botenia society Greater Noida,Flat,3373.493976,Medium,Greater Noida
337,5500000,"Ashoka Enclave Part 3, Faridabad, Delhi NCR",1200,28.470754,77.308632,3,2,1,Ready to Move,Resale,1,Semi-Furnished,2,Not Mentioned,Flat,4583.333333,Medium,Faridabad
338,20000000,"Sector 52  Gurgaon, Sector 52, Gurgaon, Delhi NCR",3250,28.43599347,77.09031699,4,4,4,Ready to Move,Resale,2,Semi-Furnished,2,Near By Tau devilal botanical garden.,Flat,6153.846154,Very Large,Gurgaon
339,10000000,"302, pearl square., Vaishali, Ghaziabad, Delhi NCR",1850,28.645225,77.342198,3,3,2,Ready to Move,Resale,1,Semi-Furnished,0,"Walking to vaishali metro station, near kr manglam world school, away.",Individual House,5405.405405,Very Large,Ghaziabad
340,6500000,"Mohan Garden, Uttam Nagar, Mohan Garden, New Delhi - West, Delhi NCR",1350,28.6330645,77.0331715,4,4,1,Ready to Move,Resale,1,Unfurnished,2,Next to Nawada Metro Station,Flat,4814.814815,Large,New Delhi - West
341,13600000,"Sector 70A, Gurgaon, Sector 70A, Gurgaon, Delhi NCR",2150,28.383489,77.020563,3,3,3,Ready to Move,Resale,2,Semi-Furnished,3,Not Mentioned,Individual House,6325.581395,Very Large,Gurgaon
342,14900000,"Efp-iii-37-0202., Sector 65, Gurgaon, Delhi NCR",1650,28.397952,77.069057,3,3,3,Ready to Move,Resale,1,Semi-Furnished,1,"Bharti Worldmark Mall, M3M Urbana Mall, Heritage School, Sriram School",Individual House,9030.30303,Large,Gurgaon
343,10500000,"GGN 01 0202 Sector 102 Gurgaon, Sector 102, Gurgaon, Delhi NCR",1650,28.47631073,76.97161102,3,3,2,Ready to Move,Resale,1,Unfurnished,2,Not Mentioned,Flat,6363.636364,Large,Gurgaon
344,11000000,"Plot no 46-47, Pocket size, Rohini Sector 21, Sector 21 Rohini, New Delhi - Rohini, Delhi NCR",1215,28.7141266,77.0676456,4,3,2,Ready to Move,Resale,1,Unfurnished,2,Rohini Sector 21 is nearest for transportation,Flat,9053.497942,Medium,New Delhi - Rohini
345,30500000,"New Delhi, Meera Bagh, New Delhi - West, Delhi NCR",2700,28.65758705,77.08957672,4,3,2,Ready to Move,Resale,1,Unfurnished,2,Not Mentioned,Flat,11296.2963,Very Large,New Delhi - West
346,8500000,"f-801, Sector 78, Noida, Delhi NCR",1345,28.560232,77.38860669,3,2,3,Ready to Move,Resale,1,Semi-Furnished,2,Noida Sec-101 Metro Station,Flat,6319.702602,Large,Noida
347,24000000,"D-252, Sushant Lok-2 Golf course road gurugram, Gurgaon, Sushant Lok 2, Gurgaon, Delhi NCR",3050,28.34563255,77.32644653,4,4,3,Ready to Move,New Property,7,Semi-Furnished,1,Near By Shalom Presidency School,Flat,7868.852459,Very Large,Gurgaon
348,7600000,"sector 37C gurgaon, Sector 37C, Gurgaon, Delhi NCR",1600,28.44926,76.98476024,3,3,3,Ready to Move,Resale,1,Semi-Furnished,2,near Hero Honda Chowk,Flat,4750,Large,Gurgaon
349,45000000,"T tower, Dlf City Phase 4, Gurgaon, Delhi NCR",4064,28.464031,77.08547543,4,5,5,Ready to Move,Resale,3,Semi-Furnished,3,Next to Galleria Shopping mall,Flat,11072.83465,Very Large,Gurgaon
350,6500000,"Rz- 89/A, Nand vihar Near Dwarka Metro Station, Dwarka New Delhi -78, Sector 16 Dwarka, New Delhi - Dwarka, Delhi NCR",1100,28.63477135,77.04911041,3,2,3,Ready to Move,New Property,1,Unfurnished,2,Near Dwarka Metro Station,Flat,5909.090909,Medium,New Delhi - Dwarka
351,10500000,"F-479, Sarita Vihar Pocket F, New Delhi - South, Delhi NCR",1100,28.5336945,77.295901,2,2,2,Ready to Move,Resale,1,Semi-Furnished,2,Not Mentioned,Flat,9545.454545,Medium,New Delhi - South
352,30000000,"183 flat no.3 tower 1 floor 8th Windsor GreensSector 50 Noida 201301, Sector 50, Noida, Delhi NCR",4500,28.578346,77.37369258,7,5,2,Ready to Move,Resale,2,Semi-Furnished,2,Near Sector 50 metro station,Flat,6666.666667,Very Large,Noida
353,15000000,"New Delhi, Gurgaon, Delhi NCR",2160,28.70186234,77.14009857,3,3,3,Ready to Move,Resale,1,Semi-Furnished,2,Rapid Metro Station DLF Phase-1,Flat,6944.444444,Very Large,Gurgaon
354,3000000,"Loni, Ghaziabad, Delhi NCR",785,28.7662162,77.2705047,2,2,2,Ready to Move,Resale,1,Unfurnished,2,Not Mentioned,Flat,3821.656051,Small,Ghaziabad
355,10500000,"Swarnnagari, Greater Noida, Swarnnagari, Greater Noida, Delhi NCR",2600,28.45887906,77.52271124,3,4,4,Ready to Move,Resale,3,Semi-Furnished,2,Property is 2 kms away from Pari Chowk Metro and Opp JP Golf Course.,Flat,4038.461538,Very Large,Greater Noida
356,16500000,"Sector 45, Noida, Delhi NCR",2465,28.548787,77.346032,4,4,4,Ready to Move,Resale,1,Semi-Furnished,2,Not Mentioned,Flat,6693.711968,Very Large,Noida
357,5700000,"Greater Noida West, Greater Noida, Sector 16, Greater Noida, Delhi NCR",1661,28.60477829,77.45191193,3,3,3,Ready to Move,Resale,1,Unfurnished,2,Close to upcoming metro and commercial complex,Flat,3431.66767,Very Large,Greater Noida
358,5600000,"Bhopura, Ghaziabad, Delhi NCR",1655,28.7005505,77.3286995,3,3,2,Ready to Move,Resale,1,Semi-Furnished,2,Not Mentioned,Flat,3383.685801,Very Large,Ghaziabad
359,2300000,"New Delhi, Dwarka Mor, New Delhi - West, Delhi NCR",585,28.6193161,77.03326416,2,2,1,Ready to Move,New Property,1,Semi-Furnished,2,delhi Jal board,Flat,3931.623932,Small,New Delhi - West
360,15500000,"144., Sector 4 Dwarka, New Delhi - Dwarka, Delhi NCR",1600,28.60241996,77.05425039,3,2,1,Ready to Move,Resale,2,Semi-Furnished,2,the property is close to metro station,Flat,9687.5,Large,New Delhi - Dwarka
361,7000000,"Sector 82, Gurgaon, Delhi NCR",1133,28.38981649,76.969342,2,2,3,Ready to Move,Resale,1,Semi-Furnished,2,Not Mentioned,Flat,6178.287732,Medium,Gurgaon
362,3150000,"Bhopura, Ghaziabad, Bhopura, Ghaziabad, Delhi NCR",1050,28.72645304,77.33733853,2,2,3,Ready to Move,Resale,1,Semi-Furnished,2,Near Hiddon Airport.,Flat,3000,Medium,Ghaziabad
363,10000000,"Ramprastha Edge Towers, Dwarka Expressway, Gurgaon, Delhi NCR",1650,28.44837761,76.9695282,3,3,2,Ready to Move,Resale,1,Unfurnished,2,Dwaraka Expressway,Flat,6060.606061,Large,Gurgaon
364,3400000,"near IGNOU University, Neb Sarai, New Delhi - South, Delhi NCR",720,28.50693703,77.20652771,2,2,1,Ready to Move,New Property,1,Semi-Furnished,2,Not Mentioned,Flat,4722.222222,Small,New Delhi - South
365,35200000,"903., Behrampur, Gurgaon, Delhi NCR",2985,28.410913,77.107908,3,3,2,Ready to Move,Resale,2,Semi-Furnished,2,"Strategically located in sector-59 , Gurgaon..25 minutes from Airport",Flat,11792.29481,Very Large,Gurgaon
366,5000000,"G1104 Brave hearts Rajnagar extension Ghaziabad, Raj Nagar Extension, Ghaziabad, Delhi NCR",1350,28.70689747,77.429488,3,2,3,Ready to Move,Resale,1,Semi-Furnished,2,Not Mentioned,Flat,3703.703704,Large,Ghaziabad
367,3200000,"Govindpuram, Ghaziabad, Delhi NCR",835,28.617142,77.438927,3,2,2,Ready to Move,Resale,1,Semi-Furnished,2,Not Mentioned,Flat,3832.335329,Small,Ghaziabad
368,9800000,"H 304., Sector 70, Noida, Delhi NCR",1839,28.59594917,77.38369751,3,4,4,Ready to Move,Resale,1,Semi-Furnished,2,On main Vikas marg of Noida.,Flat,5328.983143,Very Large,Noida
369,4880000,"Raj Nagar Extension, Ghaziabad, Garhi, Ghaziabad, Delhi NCR",1180,28.63595772,77.43235779,2,2,3,Ready to Move,Resale,1,Semi-Furnished,2,Near Officer city project,Individual House,4135.59322,Medium,Ghaziabad
370,3200000,"Village Sheikh Sarai, Nr Reliance Fresh.  New Delhi-110017, Savitri Nagar Village, New Delhi - South, Delhi NCR",650,28.5398139,77.2186828,2,2,1,Ready to Move,Resale,1,Semi-Furnished,2,Not Mentioned,Individual House,4923.076923,Small,New Delhi - South
371,5300000,"Sector 143, Noida, Delhi NCR",1175,28.500621,77.424203,2,2,2,Ready to Move,Resale,1,Semi-Furnished,2,Not Mentioned,Flat,4510.638298,Medium,Noida
372,5250000,"A-1625., Greenfields Colony Block A, Faridabad, Delhi NCR",1100,28.465711,77.2962675,2,2,1,Ready to Move,Resale,1,Unfurnished,0,From NHPC metro cross the railway underpass then to gate number 5.,Flat,4772.727273,Medium,Faridabad
373,5500000,"plot 131 flat ff3 Gyan khand 1 Indirapuram Ghaziabad, Gyan Khand 1, Ghaziabad, Delhi NCR",1400,28.64177895,77.35029602,3,2,1,Ready to Move,Resale,1,Unfurnished,2,Not Mentioned,Flat,3928.571429,Large,Ghaziabad
374,5000000,"Sector 34, Noida, Delhi NCR",1000,28.58390999,77.36087036,2,2,2,Ready to Move,Resale,1,Unfurnished,2,Not Mentioned,Flat,5000,Medium,Noida
375,24400000,"Naraina, New Delhi - West, Delhi NCR",2000,28.63158035,77.14045715,3,3,1,Ready to Move,Resale,1,Semi-Furnished,2,Close to Salvaan School and Park. 2 minutes walk from pink line Metro station. A Block is the most posh and prime location of Naraina Vihar,Flat,12200,Very Large,New Delhi - West
376,4300000,"Mahavir Enclave Part 1, New Delhi - Dwarka, Delhi NCR",880,28.5980365,77.0765245,2,2,2,Ready to Move,Resale,1,Furnished,2,Near Dashrathpuri Metro Station ( 1 min walk),Flat,4886.363636,Small,New Delhi - Dwarka
377,3500000,"vikas vihar New Delhi, Uttam Nagar East, New Delhi - West, Delhi NCR",700,28.63476944,77.04902649,3,2,1,Ready to Move,New Property,1,Semi-Furnished,1,Near Arya samaj Market Road,Individual House,5000,Small,New Delhi - West
378,12500000,"A-601., Sector 77, Gurgaon, Delhi NCR",2000,28.387227,76.980183,3,3,4,Ready to Move,Resale,1,Semi-Furnished,2,Not Mentioned,Flat,6250,Very Large,Gurgaon
379,17000000,"EARTH UMIYA SADAN, PATEL CGHS, SECTOR 4, DWARKA, Sector 4 Dwarka, New Delhi - Dwarka, Delhi NCR",1500,28.6014648,77.05241473,3,3,3,Ready to Move,Resale,2,Semi-Furnished,2,near modern convent school,Flat,11333.33333,Large,New Delhi - Dwarka
380,2650000,"Plot no 3 SPS Homes 1st Floor  Flat No 001 Ashok vihar Phase 2 Gurgaon, Ashok Vihar Phase 2, Gurgaon, Delhi NCR",540,28.4838094,77.027832,2,2,1,Ready to Move,Resale,1,Unfurnished,2,Near By Sector 5 Gol Chakkar.,Individual House,4907.407407,Small,Gurgaon
381,8000000,"Sector 32 Sohna, Gurgaon, Delhi NCR",1093,28.283756,77.079837,2,2,2,Ready to Move,Resale,1,Semi-Furnished,2,Not Mentioned,Flat,7319.304666,Medium,Gurgaon
382,4000000,"flat No. F1 Plot No. 34 First Floor Vikram Enclave Shalimar Garden Extn. Distt. Ghaziabad ., Vikram Enclave, Ghaziabad, Delhi NCR",1100,28.66864395,77.47614288,3,2,2,Ready to Move,Resale,2,Unfurnished,2,Near by  Gyatri bhawan .,Flat,3636.363636,Medium,Ghaziabad
383,2500000,"Vijay Enclave, New Delhi - West, Delhi NCR",600,28.60611725,77.07875824,2,2,2,Ready to Move,Resale,1,Furnished,0,Near Dasratpuri Metro Station,Flat,4166.666667,Small,New Delhi - West
384,25000000,"B - 35, South City 2, Sector 49, Gurgaon, South City 2, Gurgaon, Delhi NCR",2700,28.41772079,77.05281067,4,5,4,Ready to Move,Resale,1,Semi-Furnished,2,Not Mentioned,Individual House,9259.259259,Very Large,Gurgaon
385,11000000,"Tilak Nagar, New Delhi - West, Delhi NCR",1000,28.6387296,77.0941045,2,2,2,Ready to Move,Resale,6,Furnished,2,Not Mentioned,Individual House,11000,Medium,New Delhi - West
386,11400000,"Shaheed Budh Ram Singh Marg, Abhimanyu Appartment, Vasundhara Enclave, New Delhi, Vasundhara Enclave, New Delhi - East, Delhi NCR",1400,28.60135623,77.31935835,3,3,2,Ready to Move,Resale,1,Semi-Furnished,2,Not Mentioned,Individual House,8142.857143,Large,New Delhi - East
387,5500000,"L-., Ahinsa Khand 1, Ghaziabad, Delhi NCR",1146,28.640515,77.376783,2,2,2,Ready to Move,Resale,1,Semi-Furnished,2,Not Mentioned,Flat,4799.30192,Medium,Ghaziabad
388,10600000,"Mahagun Merabella Sector 79 Noida Uttar Pradesh 201301, Sector 79, Noida, Delhi NCR",1730,28.58891296,77.32035828,3,3,3,Ready to Move,New Property,1,Semi-Furnished,3,Near by Civitech stadia Noida,Flat,6127.16763,Very Large,Noida
389,11000000,"B113, ground floor, ardee city sector 52 Gurgaon, Sector 52, Gurgaon, Delhi NCR",1500,28.44207,77.075517,4,4,2,Ready to Move,Resale,1,Semi-Furnished,2,Not Mentioned,Flat,7333.333333,Large,Gurgaon
390,7350000,"Ajnara Daffodil Sector 137 Noida, Sector 137, Noida, Delhi NCR",1435,28.58905983,77.32012939,3,2,4,Ready to Move,Resale,1,Unfurnished,2,Near by Felix hospital Sector 137 Noida,Flat,5121.95122,Large,Noida
391,5000000,"Omicron 3, Greater Noida, Delhi NCR",1395,28.474501,77.553187,3,2,2,Ready to Move,Resale,2,Semi-Furnished,2,Not Mentioned,Flat,3584.229391,Large,Greater Noida
392,3800000,"Indirapuram, Ghaziabad, Delhi NCR",887,28.6493479,77.3696259,2,2,2,Ready to Move,Resale,1,Semi-Furnished,2,Not Mentioned,Flat,4284.10372,Small,Ghaziabad
393,5000000,"Bhopura, Ghaziabad, Delhi NCR",1290,28.728555,77.337353,3,2,5,Ready to Move,Resale,1,Semi-Furnished,2,HP Gas service,Flat,3875.968992,Large,Ghaziabad
394,6500000,"221222 2nd Floor Pocket 1 Sector 25 Rohini Delhi 110085, Rohini, New Delhi - Rohini, Delhi NCR",862,28.63477325,77.04909515,3,3,2,Ready to Move,Resale,4,Semi-Furnished,2,Near Rithala metro station,Individual House,7540.603248,Small,New Delhi - Rohini
395,3100000,"Raj Nagar Extension, Ghaziabad, Raj Nagar Extension, Ghaziabad, Delhi NCR",1075,28.71109749,77.41739441,2,2,2,Ready to Move,Resale,1,Semi-Furnished,6,"SG Grand, AK Children Academy, GNB mall",Flat,2883.72093,Medium,Ghaziabad
396,9000000,"Aditya celebrity Homes Sector 76Noida, Sector 76, Noida, Delhi NCR",1660,28.575371,77.38437506,3,4,3,Ready to Move,Resale,1,Semi-Furnished,2,Near by JM Orchids society sector 76 Noida,Flat,5421.686747,Very Large,Noida
397,11000000,"sector 150, noida, Sector 150, Noida, Delhi NCR",2000,28.42491581,77.486721,3,4,3,Ready to Move,New Property,2,Semi-Furnished,3,Closed by Sector 150 Metro Station.,Flat,5500,Very Large,Noida
398,15000000,"G-50, 2nd Floor, East Of Kailash, New Delhi-110065, East Of Kailash, New Delhi - South, Delhi NCR",1350,28.5573445,77.2508955,3,2,1,Ready to Move,Resale,1,Unfurnished,2,Near by Iskcon Temple and Nehru Place Metro Station.,Flat,11111.11111,Large,New Delhi - South
399,13500000,"Plot No. 25 I.P. Extn Delhi India, Indraprastha Extension, New Delhi - East, Delhi NCR",1850,28.6232998,77.29979,4,3,1,Ready to Move,Resale,2,Semi-Furnished,2,Neabry West Vinod Nagar DMRC Station. Located on Mother Dairy,Flat,7297.297297,Very Large,New Delhi - East
400,24000000,"173 2nd Floor Sukhdev Vihar, new delhi, Sukhdev Vihar, New Delhi - South, Delhi NCR",2000,28.5538385,77.2740986,3,3,3,Ready to Move,Resale,2,Semi-Furnished,2,200 mtrs from sukhdev vihar metro station,Flat,12000,Very Large,New Delhi - South
401,6000000,"Jubilant Tower, Sector 143 B, Noida, Delhi NCR",1150,28.495486,77.25219,2,2,2,Ready to Move,Resale,1,Semi-Furnished,2,Not Mentioned,Flat,5217.391304,Medium,Noida
402,37500000,"J 11 Saket New Delhi, J Block-Saket, New Delhi - South, Delhi NCR",2800,28.49680138,77.22853851,4,4,2,Ready to Move,Resale,3,Semi-Furnished,1,Near Apeejey School Saket,Flat,13392.85714,Very Large,New Delhi - South
403,5950000,"Paras Tierea sector 137 Noida, Sector 137, Noida, Delhi NCR",1330,28.58884239,77.3203125,3,2,2,Ready to Move,Resale,1,Unfurnished,2,Near by Felix hospital sector 137 Noida,Flat,4473.684211,Large,Noida
404,5140000,"Raj Nagar Extension, Ghaziabad, Delhi NCR",1360,28.7040534,77.4373305,3,2,2,Ready to Move,Resale,1,Semi-Furnished,2,Not Mentioned,Flat,3779.411765,Large,Ghaziabad
405,9000000,"B207-08., Sector 70A, Gurgaon, Delhi NCR",1600,28.389346,77.018875,3,3,2,Ready to Move,Resale,1,Semi-Furnished,2,Not Mentioned,Individual House,5625,Large,Gurgaon
406,3500000,"West Guru Angad Nagar, Laxmi Nagar District Centre, New Delhi - East, Delhi NCR",625,28.6288811,77.2771884,2,2,1,Ready to Move,Resale,1,Unfurnished,2,Radhu Palace Laxmi Nagar,Flat,5600,Small,New Delhi - East
407,22500000,"C-116 Ground floor front portion inderpuri new Delhi 110012, Inderpuri, New Delhi - West, Delhi NCR",1800,28.62617874,77.14634705,3,3,2,Ready to Move,New Property,2,Semi-Furnished,2,Nearby SBI Bank of EC Block,Flat,12500,Very Large,New Delhi - West
408,6800000,"Indirapuram, Ghaziabad, Indirapuram, Ghaziabad, Delhi NCR",1095,28.63527193,77.37039464,2,2,2,Ready to Move,Resale,1,Semi-Furnished,2,near setor 62 noida,Flat,6210.045662,Medium,Ghaziabad
409,22000000,"South City 2, South City 2, Gurgaon, Delhi NCR",3500,28.41772,77.05281,4,4,4,Ready to Move,New Property,2,Semi-Furnished,1,"Park hospital, rps school, good earth city center, narayana school",Flat,6285.714286,Very Large,Gurgaon
410,11000000,"dwarka, Sansad Vihar, New Delhi - Dwarka, Delhi NCR",1150,28.60539767,77.05066566,2,2,2,Ready to Move,Resale,3,Semi-Furnished,0,It has a water supply from the municipal corporation and bore well/tank.,Flat,9565.217391,Medium,New Delhi - Dwarka
411,8400000,"SG.1/705, Saya Gold Avenue Indrapuram., Indirapuram, Ghaziabad, Delhi NCR",1080,28.63527193,77.37039464,2,2,2,Ready to Move,Resale,1,Semi-Furnished,2,Opo- shipra mall,Flat,7777.777778,Medium,Ghaziabad
412,21000000,"Paschim Vihar Block A3, New Delhi - West, Delhi NCR",1600,28.672126,77.1042374,3,2,1,Ready to Move,New Property,11,Semi-Furnished,2,Not Mentioned,Flat,13125,Large,New Delhi - West
413,12500000,"F Block, Gangotri Apartment, Vikaspuri, New Delhi, Vikaspuri, New Delhi - West, Delhi NCR",1110,28.64245116,77.06847649,3,3,3,Ready to Move,Resale,2,Semi-Furnished,2,Not Mentioned,Flat,11261.26126,Medium,New Delhi - West
414,5700000,"D block Kaushambi Ghaziabad, Kaushambi, Ghaziabad, Delhi NCR",1100,28.6420559,77.323499,2,2,1,Ready to Move,Resale,1,Semi-Furnished,2,Central park,Flat,5181.818182,Medium,Ghaziabad
415,4000000,"Sector 89, Faridabad, Sector 89, Faridabad, Delhi NCR",1080,28.4237892,77.3705248,3,2,2,Ready to Move,New Property,1,Unfurnished,2,500 Meter Away From Amrita Hospital,Flat,3703.703704,Medium,Faridabad
416,15000000,"Indraprastha encalave, Sector 17 Dwarka, New Delhi - Dwarka, Delhi NCR",1350,28.59210777,77.02819061,3,3,1,Ready to Move,New Property,1,Semi-Furnished,2,Not Mentioned,Flat,11111.11111,Large,New Delhi - Dwarka
417,4000000,"Koyal Enclave, Bhopura, Ghaziabad, Delhi NCR",1080,28.694223,77.4519,2,2,2,Ready to Move,Resale,1,Semi-Furnished,2,Bharat Gas agency,Individual House,3703.703704,Medium,Ghaziabad
418,5200000,"Sector 89, Faridabad, Sector 89, Faridabad, Delhi NCR",1585,28.41609628,77.3648097,3,3,2,Ready to Move,Resale,1,Semi-Furnished,2,"Near to market,upcoming hospital,",Flat,3280.757098,Large,Faridabad
419,2800000,"Omicron 1, Greater Noida, Delhi NCR",870,28.45858487,77.56091277,2,2,2,Ready to Move,Resale,1,Semi-Furnished,2,Not Mentioned,Flat,3218.390805,Small,Greater Noida
420,8000000,"Sector 82, Faridabad, Sector 82, Faridabad, Delhi NCR",2032,28.3938425,77.3506549,3,4,4,Ready to Move,Resale,1,Semi-Furnished,2,very close to DPS and Shiv Nadar School,Flat,3937.007874,Very Large,Faridabad
421,25000000,"MG Road  Sector 28  Gurgaon, M G Road, Gurgaon, Delhi NCR",2734,28.476479,77.073757,4,4,4,Ready to Move,Resale,1,Semi-Furnished,2,"Near By  MG Rd Metro Station, Shopping Malls and Multiplexes",Flat,9144.111192,Very Large,Gurgaon
422,13900000,"J3/46B, 3rd Floor, Rajouri Garden, New Delhi - West, Delhi NCR",1440,28.64334869,77.12055969,3,4,1,Ready to Move,Resale,1,Semi-Furnished,2,Near Sanatam Dharam Mandir,Individual House,9652.777778,Large,New Delhi - West
423,15000000,"D-49, sector- 08, Dwarka, Sector 8 Dwarka, New Delhi - Dwarka, Delhi NCR",1900,28.5712739,77.07314,3,3,1,Ready to Move,Resale,1,Semi-Furnished,1,Near SPG Complex,Flat,7894.736842,Very Large,New Delhi - Dwarka
424,18500000,"Sector 9 Rohini, New Delhi - Rohini, Delhi NCR",1250,28.71222715,77.12337811,3,2,2,Ready to Move,Resale,2,Semi-Furnished,2,Near Rohini east Metro station,Flat,14800,Medium,New Delhi - Rohini
425,3000000,"Pratap vihar Ghaziabad, Sector 12 Pratap Vihar, Ghaziabad, Delhi NCR",700,28.63622475,77.43367004,2,2,2,Ready to Move,Resale,1,Semi-Furnished,2,Jeevan jyoti hospital,Flat,4285.714286,Small,Ghaziabad
426,4500000,"Avenue 69 Sector 69 Gurgaon, Sector 69, Gurgaon, Delhi NCR",1000,28.34565353,77.32646179,2,2,2,Ready to Move,Resale,2,Semi-Furnished,1,Near By Vatika Chowk,Flat,4500,Medium,Gurgaon
427,5800000,"26/44 second floor patel nagar New Delhi 110008, Patel Nagar West, New Delhi - West, Delhi NCR",900,28.65242958,77.1643219,2,2,2,Ready to Move,Resale,1,Semi-Furnished,0,Near Shivansh Madicos,Flat,6444.444444,Small,New Delhi - West
428,23500000,"Sector 4, Gurgaon, Delhi NCR",3200,28.47489357,77.00980377,4,5,5,Ready to Move,Resale,2,Furnished,2,"HUDA Market Sector 4, opposite PizzaHut",Flat,7343.75,Very Large,Gurgaon
429,4700000,"Bhgwati Garden Exctention Dwarka Mor New Delhi, Dwarka Mor, New Delhi - West, Delhi NCR",1110,28.63481331,77.04915619,3,2,2,Ready to Move,New Property,1,Semi-Furnished,1,Near Lal Fram,Flat,4234.234234,Medium,New Delhi - West
430,17000000,"Dwarka Sector 6, New Delhi, Sector 6 Dwarka, New Delhi - Dwarka, Delhi NCR",1500,28.59344,77.065951,4,2,1,Ready to Move,Resale,1,Semi-Furnished,2,Near By sec 6 Market and Post office,Flat,11333.33333,Large,New Delhi - Dwarka
431,5200000,"D-24 B, Second Floor, Street No 4 Radheypuri, Krishna Nagar, Delhi 110091, Krishna Nagar, New Delhi - East, Delhi NCR",750,28.68640518,77.29970551,2,2,2,Ready to Move,Resale,2,Semi-Furnished,2,Neaeby Jain Mandir,Flat,6933.333333,Small,New Delhi - East
432,10000000,"Express Greens Sector 1, Vaishali, Ghaziabad, Delhi NCR, India., Vaishali, Ghaziabad, Delhi NCR",1710,28.6441755,77.336519,3,3,5,Ready to Move,New Property,1,Furnished,2,Not Mentioned,Flat,5847.953216,Very Large,Ghaziabad
433,7500000,"Sector 68, Gurgaon, Delhi NCR",1220,28.386791,77.049466,2,2,3,Ready to Move,Resale,1,Semi-Furnished,2,Not Mentioned,Flat,6147.540984,Medium,Gurgaon
434,4200000,"H-Tower, Greater Noida West, Greater Noida, Delhi NCR",1040,28.605958,77.444512,2,2,2,Ready to Move,Resale,1,Semi-Furnished,2,"Near by Main Road, Teen Murti Chauraha",Flat,4038.461538,Medium,Greater Noida
435,12000000,"Mayur Vihar 1, New Delhi - East, Delhi NCR",1600,28.68642998,77.29959106,4,4,2,Ready to Move,Resale,1,Semi-Furnished,2,Nearby Pocket 1 Metro Station,Flat,7500,Large,New Delhi - East
436,4200000,"NH 24, Ghaziabad, NH 24, Ghaziabad, Delhi NCR",1135,28.66288,77.47096,2,2,3,Ready to Move,Resale,1,Semi-Furnished,3,Columbia Asia Hospital,Individual House,3700.440529,Medium,Ghaziabad
437,14000000,"Ground Floor Sector 2 Vaishali Ghaziabad, Vaishali, Ghaziabad, Delhi NCR",2000,28.63624191,77.43365479,4,4,1,Ready to Move,Resale,2,Semi-Furnished,2,Near by Max Hospital,Flat,7000,Very Large,Ghaziabad
438,6300000,"78-R New Colony, New Colony, Gurgaon, Haryana, New Colony, Gurgaon, Delhi NCR",900,28.46552467,77.0171814,2,2,1,Ready to Move,New Property,2,Semi-Furnished,2,Not Mentioned,Flat,7000,Small,Gurgaon
439,27500000,"Har1503., Indirapuram, Ghaziabad, Delhi NCR",3332,28.382828,77.221297,4,5,8,Ready to Move,New Property,2,Semi-Furnished,2,Next to Indirapuram Habitat Centre. 35 min. drive from Central Delhi.,Flat,8253.301321,Very Large,Ghaziabad
440,10700000,"Plot 10/1, Block A, Vaibhav Khand, Indirapuram, Ghaziabad, Uttar Pradesh, Vaibhav Khand, Ghaziabad, Delhi NCR",1480,28.63527193,77.37039464,3,2,2,Ready to Move,Resale,1,Semi-Furnished,2,Not Mentioned,Flat,7229.72973,Large,Ghaziabad
441,2800000,"P 1204., Raj Nagar Extension, Ghaziabad, Delhi NCR",930,28.708744,77.417028,2,2,3,Ready to Move,New Property,1,Semi-Furnished,5,Near aK children academy,Flat,3010.752688,Small,Ghaziabad
442,16000000,"DDA Pocket 1, Sector 7 Dwarka, New Delhi - Dwarka, Delhi NCR",1500,28.600675,77.03042,3,2,3,Ready to Move,Resale,5,Semi-Furnished,0,Maharaja Agrasen Hospital,Flat,10666.66667,Large,New Delhi - Dwarka
443,2500000,"Shree Radhey Apartment  Near mangalam store Ward No-03, Mehrauli, New Delhi-110030, Mehrauli, New Delhi - South, Delhi NCR",700,28.5201861,77.179158,2,2,1,Ready to Move,Resale,1,Semi-Furnished,2,Near vikash hospital,Flat,3571.428571,Small,New Delhi - South
444,8900000,"Siddhartha Vihar, Ghaziabad, Siddhartha Vihar, Ghaziabad, Delhi NCR",1585,28.646286,77.406051,3,3,4,Ready to Move,Resale,1,Semi-Furnished,2,DPS School,Flat,5615.141956,Large,Ghaziabad
445,4800000,"Block F, Beta II, Rampur Jagir, Greater Noida., Beta 2, Greater Noida, Delhi NCR",1225,28.48515,77.51401,3,2,2,Ready to Move,Resale,1,Semi-Furnished,2,Not Mentioned,Flat,3918.367347,Medium,Greater Noida
446,10500000,"Sector 37D, Gurgaon., Sector 37D, Gurgaon, Delhi NCR",1817,28.45251307,76.97627035,3,3,3,Ready to Move,Resale,203,Semi-Furnished,2,"Dwarka Expressway And Schools, Hospitals Nearby.",Flat,5778.756192,Very Large,Gurgaon
447,6200000,"Sector 76, Noida, Sector 76, Noida, Delhi NCR",1315,28.56541475,77.383196,3,2,5,Ready to Move,Resale,1,Semi-Furnished,2,Near by sector 76. Metero station Noida,Flat,4714.828897,Large,Noida
448,6400000,"Sector 137 Noida, Sector 137, Noida, Delhi NCR",1277,28.5081749,77.40982056,3,2,4,Ready to Move,New Property,1,Semi-Furnished,2,Near by  felix hospital,Individual House,5011.74628,Large,Noida
449,4400000,"Sewak Park, Dwarka More, Uttam Nagar, New Delhi, Sewak Park, New Delhi - Dwarka, Delhi NCR",900,28.50094795,77.23358154,3,2,1,Ready to Move,Resale,1,Semi-Furnished,1,NearDwarka more metro station,Flat,4888.888889,Small,New Delhi - Dwarka
450,5800000,"Sector 118, Sector 118, Noida, Delhi NCR",1260,28.58416502,77.40649171,2,2,3,Ready to Move,Resale,1,Semi-Furnished,2,Not Mentioned,Flat,4603.174603,Large,Noida
451,9500000,"Prateek wisteria Sector 77Noida, Sector 77, Noida, Delhi NCR",1560,28.57153784,77.38962228,3,3,3,Ready to Move,Resale,2,Semi-Furnished,2,Near by Supertech Capetown Sector 74 Noida,Flat,6089.74359,Large,Noida
452,47000000,"house number 218 HUDA Plots Gate 14 Yoga Park sector 56 gurgaon, Sector 56 Block E, Gurgaon, Delhi NCR",4500,28.49746704,77.02713013,3,3,2,Ready to Move,New Property,2,Semi-Furnished,2,near yoga park,Flat,10444.44444,Very Large,Gurgaon
453,8500000,"Krishna Nagar-Safdarjung Enclave, New Delhi - South, Delhi NCR",920,28.56375122,77.18978882,2,2,1,Ready to Move,Resale,1,Semi-Furnished,2,Near Saint Mary's School,Flat,9239.130435,Small,New Delhi - South
454,15000000,"Trinity Homes, Ansal Esencia API, Block F, Sector 67, Gurgram, Haryana, Sector 67, Gurgaon, Delhi NCR",2400,28.38659477,77.06057739,4,4,2,Ready to Move,New Property,10,Semi-Furnished,1,Nearby M3M and Bestech Park View,Flat,6250,Very Large,Gurgaon
455,3000000,"C block, Mahavir Enclave Part 3, New Delhi - Dwarka, Delhi NCR",670,28.606044,77.070474,2,2,2,Ready to Move,Resale,1,Unfurnished,2,This property is close to Main road and nearby hospitals,Flat,4477.61194,Small,New Delhi - Dwarka
456,30000000,"Block C, Sushant Lok 2, Gurgaon, Delhi NCR",4000,28.42304993,77.08740997,4,4,4,Ready to Move,Resale,1,Unfurnished,2,"metro Station 800 meters , Hospital, School, Market 400 meters",Individual House,7500,Very Large,Gurgaon
457,2350000,"DLF Dilshad extension 2 Ghaziabad, DLF Dilshad Extention II, Ghaziabad, Delhi NCR",710,28.63630486,77.43389893,2,2,1,Ready to Move,Resale,1,Unfurnished,2,Dilshad Garden metro station,Flat,3309.859155,Small,Ghaziabad
458,15000000,"Al/277 2nd floor with roof right, Sushant Lok 2, Gurgaon, Delhi NCR",1800,28.42304993,77.08740997,3,3,2,Ready to Move,Resale,1,Furnished,2,Metro station sector 55/56,Flat,8333.333333,Very Large,Gurgaon
459,7800000,"Sector 79, Gurgaon, Sector 79, Gurgaon, Delhi NCR",1295,28.35911846,76.975628,2,2,4,Ready to Move,New Property,1,Semi-Furnished,2,Near imt Manesar chowk,Individual House,6023.166023,Large,Gurgaon
460,14300000,"first floor orchid island sector 51 gurgaon, Sector 51, Gurgaon, Delhi NCR",1650,28.429071,77.068974,4,4,2,Ready to Move,New Property,1,Semi-Furnished,2,near artimis hospital,Flat,8666.666667,Large,Gurgaon
461,5300000,"G T Road, Ghaziabad, G T Road, Ghaziabad, Delhi NCR",1125,28.679009,77.34929514,2,2,2,Ready to Move,Resale,1,Semi-Furnished,2,Not Mentioned,Flat,4711.111111,Medium,Ghaziabad
462,2600000,"Raj Nagar Extension, Ghaziabad, Delhi NCR",800,28.70451529,77.41924553,2,2,2,Ready to Move,Resale,1,Semi-Furnished,2,Not Mentioned,Flat,3250,Small,Ghaziabad
463,11000000,"Vasundhara Enclave, New Delhi - East, Delhi NCR",1400,28.59821938,77.31182666,3,2,2,Ready to Move,Resale,2,Semi-Furnished,2,Nearby Ashok Nagar Metro station,Flat,7857.142857,Large,New Delhi - East
464,8500000,"368 subhash Nagar., Subhash Nagar, New Delhi - West, Delhi NCR",900,28.7427845,77.13809204,2,2,2,Ready to Move,Resale,1,Semi-Furnished,2,Near Main Market and shubhash nagar Metro Stations.,Individual House,9444.444444,Small,New Delhi - West
465,17000000,"DLF City Phase 1, DLF City Phase 2, Gurgaon, Delhi NCR",2150,28.43108,77.055414,3,3,2,Ready to Move,New Property,1,Semi-Furnished,1,nearby shikandarpur metro station,Flat,7906.976744,Very Large,Gurgaon
466,14200000,"Dwarka Sector 23, New Delhi, Sector 23 Dwarka, New Delhi - Dwarka, Delhi NCR",1850,28.56329062,77.05067414,3,3,3,Ready to Move,Resale,2,Semi-Furnished,2,Plot no. -13,Flat,7675.675676,Very Large,New Delhi - Dwarka
